{"_id":{"$oid":"ce6feed06bc1a9e5aff95f04"},"name":"plaza del Dos de Mayo, 6, Madrid","coordinates":{"longitude":-3.7041862522159366,"latitude":40.42732576700565}}
{"_id":{"$oid":"47700194cae2115edbe89387"},"name":"calle de Ríos Rosas, 50, Madrid","coordinates":{"longitude":-3.6962344605258637,"latitude":40.44159015809918}}
{"_id":{"$oid":"065e50ccf9bed218e4dc14c6"},"name":"calle de Argensola, 12, Madrid","coordinates":{"longitude":-3.694781349065569,"latitude":40.42528356625323}}
{"_id":{"$oid":"e19049464a9467a9a95402ed"},"name":"calle de Alcalá, 98, Madrid","coordinates":{"longitude":-3.67484420244431,"latitude":40.42499625549617}}
{"_id":{"$oid":"a5f240a9777e72c31a3e69d2"},"name":"plaza de Salesas, 7, Madrid","coordinates":{"longitude":-3.694447144937114,"latitude":40.42373602046807}}
{"_id":{"$oid":"94a4877361dfc7ba1b87cab4"},"name":"calle de Leopoldo Alas Clarín, 8, Madrid","coordinates":{"longitude":-3.7335507127210215,"latitude":40.48033217152688}}
{"_id":{"$oid":"15937de4acb61e0a344c6f40"},"name":"calle Cáceres, 5, San Fernando de Henares","coordinates":{"longitude":-3.534354949036296,"latitude":40.427154383748515}}
{"_id":{"$oid":"683d492beb28f2b6843fdc25"},"name":"gta de López de Hoyos, 3, Madrid","coordinates":{"longitude":-3.6806280562952987,"latitude":40.440944359155}}
{"_id":{"$oid":"d9cdbdb0da78a71c66b30271"},"name":"calle del Valle de Mena, 4, Madrid","coordinates":{"longitude":-3.715108586690274,"latitude":40.470159531466635}}
{"_id":{"$oid":"2c9d3210eab39a36e1f2e21b"},"name":"calle del Príncipe de Vergara, 210, Madrid","coordinates":{"longitude":-3.6773815640693885,"latitude":40.45112558610754}}
{"_id":{"$oid":"27f95bc631a2522868c52b82"},"name":"calle del General Pardiñas, 61, Madrid","coordinates":{"longitude":-3.6782259574180807,"latitude":40.43188639394151}}
{"_id":{"$oid":"066eeaec0b80ec50d05f58fa"},"name":"calle Velázquez, 2, Loeches","coordinates":{"longitude":-3.40981023623125,"latitude":40.38320286883676}}
{"_id":{"$oid":"b1d80a9ed76950ed2b486c8c"},"name":"calle de Gutenberg, 20, Madrid","coordinates":{"longitude":-3.6803296886464514,"latitude":40.40665771373414}}
{"_id":{"$oid":"3647bfc67b4b0b796cf02915"},"name":"calle de Preciados, 19, Madrid","coordinates":{"longitude":-3.7054552895656787,"latitude":40.41902972072887}}
{"_id":{"$oid":"445701b5f805c76588b9bd89"},"name":"calle del Alcalde Henche de la Plata, 7, Madrid","coordinates":{"longitude":-3.6498733753583856,"latitude":40.48833743115443}}
{"_id":{"$oid":"80fd8dd40249feffc88145a0"},"name":"calle de Ponzano, 31, Madrid","coordinates":{"longitude":-3.69940710800667,"latitude":40.43939082671233}}
{"_id":{"$oid":"73ac662a164ad65152e57271"},"name":"avda General, 1, Madrid","coordinates":{"longitude":-3.577826245886988,"latitude":40.47327871193892}}
{"_id":{"$oid":"8bc8213782336471754e8990"},"name":"paseo de Santa María de la Cabeza, 80, Madrid","coordinates":{"longitude":-3.701578671987521,"latitude":40.398737890321556}}
{"_id":{"$oid":"eef6c322fa22198aba0c124e"},"name":"calle de Rodríguez San Pedro, 23, Madrid","coordinates":{"longitude":-3.7110570692810603,"latitude":40.431608042104514}}
{"_id":{"$oid":"85ed504d7134f0484437eca6"},"name":"calle de Feijoo, 12, Madrid","coordinates":{"longitude":-3.7031549248067317,"latitude":40.43470142324421}}
{"_id":{"$oid":"c607448f690edbe3e4451bbd"},"name":"calle de Diego de León, 34, Madrid","coordinates":{"longitude":-3.6813429296322813,"latitude":40.43466987218751}}
{"_id":{"$oid":"58a50ddf91095c052e330fd6"},"name":"calle Madrid, 48, Getafe","coordinates":{"longitude":-3.7296081336415634,"latitude":40.307662279160645}}
{"_id":{"$oid":"1793fd9ee539dc62a736ead0"},"name":"calle de Juan Zofío, 4, Madrid","coordinates":{"longitude":-3.715840569191619,"latitude":40.38126295157993}}
{"_id":{"$oid":"5247ed8a84c344dfd6061a11"},"name":"calle de la Ilustración, 8, Madrid","coordinates":{"longitude":-3.7169955503136656,"latitude":40.42129206829042}}
{"_id":{"$oid":"6912a86b7b6d344a7d91d457"},"name":"calle del General Ricardos, 118, Madrid","coordinates":{"longitude":-3.7262779656409126,"latitude":40.392197958387456}}
{"_id":{"$oid":"503420a4936ce669bcbe3a18"},"name":"calle de Eugenia de Montijo, 43, Madrid","coordinates":{"longitude":-3.743410877783953,"latitude":40.38156647735205}}
{"_id":{"$oid":"84a60f4319cdc7918a88aefa"},"name":"calle de Hortaleza, 44, Madrid","coordinates":{"longitude":-3.6996179394331956,"latitude":40.42219132764735}}
{"_id":{"$oid":"d2234e952ee9412af7fa8f93"},"name":"calle de Ramón Esteban, 27, San Sebastián de los Reyes","coordinates":{"longitude":-3.6290909627297734,"latitude":40.54479414905591}}
{"_id":{"$oid":"ec46c109a0bc7e15c4f91b28"},"name":"avda de Peña Prieta, 16, Madrid","coordinates":{"longitude":-3.667693053083395,"latitude":40.39920880005569}}
{"_id":{"$oid":"bbff948b1699b2091194e4a8"},"name":"plaza Mayor, 7, Cercedilla","coordinates":{"longitude":-4.05538023694143,"latitude":40.741289314022154}}
{"_id":{"$oid":"2dae510b3cdf66702782879f"},"name":"calle de Goya, 55, Madrid","coordinates":{"longitude":-3.6813185631773777,"latitude":40.425246571426}}
{"_id":{"$oid":"e46c5f25f2d337506e641e0d"},"name":"avda de la Ciudad de Barcelona, 105, Madrid","coordinates":{"longitude":-3.671065651608495,"latitude":40.39945053914357}}
{"_id":{"$oid":"77c4b4af011f913b59d3c80a"},"name":"calle de Toledo, 129, Madrid","coordinates":{"longitude":-3.711623119139816,"latitude":40.40589276766608}}
{"_id":{"$oid":"dda793138f6614d83cf5f995"},"name":"avda de Peña Prieta, 39, Madrid","coordinates":{"longitude":-3.665475703904532,"latitude":40.4014017800768}}
{"_id":{"$oid":"9f8da20d556e4d184d3b780d"},"name":"calle de Alonso Cano, 69, Madrid","coordinates":{"longitude":-3.697660187243308,"latitude":40.441491472441626}}
{"_id":{"$oid":"3e0deafc64bb3e671cdaf5c5"},"name":"paseo del General Martínez Campos, 22, Madrid","coordinates":{"longitude":-3.6949747793577483,"latitude":40.43491305100973}}
{"_id":{"$oid":"869c800a341b2822745ef5fe"},"name":"calle de San Bernardo, 115, Madrid","coordinates":{"longitude":-3.7048903701597182,"latitude":40.43266382593149}}
{"_id":{"$oid":"1957b7bef0a300ead81c688d"},"name":"paseo de María Lejárraga, 6, Getafe","coordinates":{"longitude":-3.752916736633588,"latitude":40.29990916367276}}
{"_id":{"$oid":"a3f4922de1bcbf3ef0a13c7c"},"name":"calle de Alonso Heredia, 22, Madrid","coordinates":{"longitude":-3.672405447764029,"latitude":40.435794275319964}}
{"_id":{"$oid":"affa6fe7e83dce1365e3e1fd"},"name":"calle del General Ricardos, 183, Madrid","coordinates":{"longitude":-3.741494963564537,"latitude":40.383038249945784}}
{"_id":{"$oid":"99920d3b2bdf1bea0923524c"},"name":"plaza del Ángel, 14, Madrid","coordinates":{"longitude":-3.7025420423339708,"latitude":40.41432672146844}}
{"_id":{"$oid":"c08227e089a81db63d386676"},"name":"calle de Moreto, 15, Madrid","coordinates":{"longitude":-3.690202025741536,"latitude":40.413220860207424}}
{"_id":{"$oid":"5f327a16efec3b298365cfe4"},"name":"calle de Goya, 19, Madrid","coordinates":{"longitude":-3.6868383401694986,"latitude":40.425520217758056}}
{"_id":{"$oid":"463e6b0563035fdb0671edb0"},"name":"paseo de la Ermita del Santo, 42, Madrid","coordinates":{"longitude":-3.7238795059374157,"latitude":40.40918606873456}}
{"_id":{"$oid":"4a1f75581667bb3fe67afc0e"},"name":"avda de Portugal, 155, Madrid","coordinates":{"longitude":-3.7377731510449688,"latitude":40.41119735521985}}
{"_id":{"$oid":"91c1674987b58ec6e2b0e536"},"name":"calle de María Tubau, 19, Madrid","coordinates":{"longitude":-3.6785176695854993,"latitude":40.51128069695015}}
{"_id":{"$oid":"5183c2618065d513d28a918b"},"name":"calle del Mesón de Paredes, 8, Madrid","coordinates":{"longitude":-3.705176006100795,"latitude":40.41147283629382}}
{"_id":{"$oid":"238bd561d19cc78df63a67f7"},"name":"calle de García de Paredes, 80, Madrid","coordinates":{"longitude":-3.693493907496517,"latitude":40.43651653990111}}
{"_id":{"$oid":"d1c957eaa03f73f827dda1b0"},"name":"plaza de Cascorro, 2, Madrid","coordinates":{"longitude":-3.7071179372081935,"latitude":40.41120872255794}}
{"_id":{"$oid":"52febdc8af53d8be1da5e7cf"},"name":"calle de Ferraz, 13, Madrid","coordinates":{"longitude":-3.717876470653007,"latitude":40.42653886451199}}
{"_id":{"$oid":"03a6499f4a5ee4204ba0f5d2"},"name":"plaza de Verín, 3, Madrid","coordinates":{"longitude":-3.708842830142201,"latitude":40.477828710886065}}
{"_id":{"$oid":"f8f1f5c5cdf2874e573c12a3"},"name":"calle de Serrano, 112, Madrid","coordinates":{"longitude":-3.686244682912221,"latitude":40.43554178076068}}
{"_id":{"$oid":"c936f530975be8bfb6f2401f"},"name":"calle de Sánchez Barcaiztegui, 19, Madrid","coordinates":{"longitude":-3.6748926120169174,"latitude":40.403887757333194}}
{"_id":{"$oid":"83457d76d5d6b1ed4399fb19"},"name":"calle de José Antonio de Armona, 22, Madrid","coordinates":{"longitude":-3.6969014200357653,"latitude":40.404540987713084}}
{"_id":{"$oid":"3d6b39c10a56d0e42cc9d726"},"name":"calle de Quintana, 20, Madrid","coordinates":{"longitude":-3.7179135523460567,"latitude":40.42780890635046}}
{"_id":{"$oid":"9bae0417b56cab866bcf7891"},"name":"calle de Atocha, 109, Madrid","coordinates":{"longitude":-3.69503017271528,"latitude":40.41051624845194}}
{"_id":{"$oid":"2e3586d6e328e83ad91d20be"},"name":"calle de la Marquesa Viuda Aldama, 12, Alcobendas","coordinates":{"longitude":-3.6317308455670507,"latitude":40.54295995369684}}
{"_id":{"$oid":"b6d67827d463f9bd5fd11100"},"name":"paseo de la Florida, 47, Madrid","coordinates":{"longitude":-3.7240312928389954,"latitude":40.4233473242237}}
{"_id":{"$oid":"bf95940cfbd52835ce0cf618"},"name":"calle Alfonso Senra, 20, Guadarrama","coordinates":{"longitude":-4.0898799321023676,"latitude":40.67294585258411}}
{"_id":{"$oid":"82aae87ca4715e7205986793"},"name":"calle de la Magdalena, 33, Madrid","coordinates":{"longitude":-3.6997405313811877,"latitude":40.41240676513669}}
{"_id":{"$oid":"7284a255548e1236db734740"},"name":"calle de Cartagena, 121, Madrid","coordinates":{"longitude":-3.675246017377056,"latitude":40.44159754371462}}
{"_id":{"$oid":"b2fb6f1d7cf4aefb451a54fc"},"name":"calle de Carlos Morla Lynch, 2, Madrid","coordinates":{"longitude":-3.776923593428137,"latitude":40.518462662382035}}
{"_id":{"$oid":"6a33d0bcd3624ccb86febf09"},"name":"paseo de Juan Antonio Vallejo-Nájera Botas, 25, Madrid","coordinates":{"longitude":-3.708127174898012,"latitude":40.40179709035154}}
{"_id":{"$oid":"6942f2624e971761b7dd9208"},"name":"avda de la Albufera, 432, Madrid","coordinates":{"longitude":-3.630286273179001,"latitude":40.382283437657705}}
{"_id":{"$oid":"a90d084e0d6d9e2a3bf99c7f"},"name":"ronda de Atocha, 24, Madrid","coordinates":{"longitude":-3.6982405082417085,"latitude":40.406397784628545}}
{"_id":{"$oid":"3106cd79c968df1fcb2a5ca9"},"name":"avda de los Andes, 22, Madrid","coordinates":{"longitude":-3.620961660128284,"latitude":40.45472171463165}}
{"_id":{"$oid":"7851527ad1ae95031ce484cd"},"name":"avda de Pablo Neruda, 124, Madrid","coordinates":{"longitude":-3.655397058475764,"latitude":40.38163933613158}}
{"_id":{"$oid":"9b3bd9577ef1aaf746083552"},"name":"calle del Pez, 25, Madrid","coordinates":{"longitude":-3.706261730590023,"latitude":40.42400679321097}}
{"_id":{"$oid":"9ee3200a71d14339c397a455"},"name":"paseo de Extremadura, 25, Madrid","coordinates":{"longitude":-3.728039690142559,"latitude":40.41354735176691}}
{"_id":{"$oid":"64bba266de127a5949f52d9a"},"name":"bulev de José Prat, 5, Madrid","coordinates":{"longitude":-3.6233859044716414,"latitude":40.400528243523254}}
{"_id":{"$oid":"0913ab0f37483bf2b1a72664"},"name":"calle de Atocha, 114, Madrid","coordinates":{"longitude":-3.693357279937122,"latitude":40.40943619682849}}
{"_id":{"$oid":"fc2ed51a65e1473d8a2859ba"},"name":"calle de Domingo Rodelgo, 14, Morata de Tajuña","coordinates":{"longitude":-3.437311599214994,"latitude":40.2287280912341}}
{"_id":{"$oid":"98049c471fe77a402c0c6379"},"name":"calle del Real, 28, Carabaña","coordinates":{"longitude":-3.237817963693892,"latitude":40.256230034905954}}
{"_id":{"$oid":"41281062b5a24b7992044395"},"name":"calle Real, 34, Tielmes","coordinates":{"longitude":-3.318044035944261,"latitude":40.24473057777425}}
{"_id":{"$oid":"02daa212163f72d7d2dc4414"},"name":"avda del Ensanche de Vallecas, 83, Madrid","coordinates":{"longitude":-3.595579352104914,"latitude":40.36219682673954}}
{"_id":{"$oid":"5fc2eee69e4f20f94c2b5420"},"name":"calle de José Ortega y Gasset, 85, Madrid","coordinates":{"longitude":-3.6715920260962327,"latitude":40.42988007259295}}
{"_id":{"$oid":"c2eb1c63b5b1bb28d06cefaa"},"name":"calle de López de Hoyos, 121, Madrid","coordinates":{"longitude":-3.6713880460068946,"latitude":40.44611551069818}}
{"_id":{"$oid":"48adbff1f97846a7edab59fa"},"name":"plaza del Pueblo, 10, Colmenar Viejo","coordinates":{"longitude":-3.7655261348111315,"latitude":40.65887716866477}}
{"_id":{"$oid":"a239f00794af715bfd7e46fa"},"name":"calle del Marqués de Viana, 3, Madrid","coordinates":{"longitude":-3.6991212554662325,"latitude":40.46073485935841}}
{"_id":{"$oid":"16a2059695eafcb136ef82c6"},"name":"calle de Nuestra Señora de Valverde, 71, Madrid","coordinates":{"longitude":-3.6878954610645516,"latitude":40.49567586755846}}
{"_id":{"$oid":"37dc73679e27ac764b7ec239"},"name":"calle de Palencia, 2, Madrid","coordinates":{"longitude":-3.703135855761089,"latitude":40.44984567393281}}
{"_id":{"$oid":"170102a9423ffeaaa1ee5030"},"name":"calle de Santa Teresa, 3, Madrid","coordinates":{"longitude":-3.696086542141899,"latitude":40.42610454600019}}
{"_id":{"$oid":"365fbe107af15482ce1be1b6"},"name":"calle de la Plaza, 36, Fuenlabrada","coordinates":{"longitude":-3.794360705592679,"latitude":40.2830010307537}}
{"_id":{"$oid":"3b9fbf2b7ce0abfdcdffaf59"},"name":"calle de Bravo Murillo, 339, Madrid","coordinates":{"longitude":-3.695374797248525,"latitude":40.464577263712364}}
{"_id":{"$oid":"fb5eea977c41f42554288102"},"name":"calle de Hortaleza, 96, Madrid","coordinates":{"longitude":-3.6979224303985636,"latitude":40.42466104167375}}
{"_id":{"$oid":"5c3ddcb22a95f99fe3d9a416"},"name":"calle de Narváez, 50, Madrid","coordinates":{"longitude":-3.6763459529966735,"latitude":40.41957304531129}}
{"_id":{"$oid":"0f4c8b0654e27608c500e311"},"name":"calle de los Embajadores, 102, Madrid","coordinates":{"longitude":-3.7005531197325126,"latitude":40.40211350003627}}
{"_id":{"$oid":"99ce67ade13e4d0b896717a7"},"name":"avda de Machupichu, 37, Madrid","coordinates":{"longitude":-3.6273857645043504,"latitude":40.459425761653065}}
{"_id":{"$oid":"4e74c630d560930836983338"},"name":"calle de Galileo, 61, Madrid","coordinates":{"longitude":-3.710313953561503,"latitude":40.43605405433942}}
{"_id":{"$oid":"db0e60e6037c08ce560d731d"},"name":"calle Mayor, 59, Madrid","coordinates":{"longitude":-3.7097805435089786,"latitude":40.415597831078216}}
{"_id":{"$oid":"01c0ec606d7d4caa083f6d5f"},"name":"calle de Ferraz, 53, Madrid","coordinates":{"longitude":-3.721070834079631,"latitude":40.42981628618474}}
{"_id":{"$oid":"454935aa7a63afa5b9f8f62a"},"name":"calle del Gobernador, 87, Aranjuez","coordinates":{"longitude":-3.603250367842783,"latitude":40.03252075593809}}
{"_id":{"$oid":"8b651f9ef79ad0b6f2d6b4c5"},"name":"calle del Jazmín, 44, Madrid","coordinates":{"longitude":-3.6663950651557697,"latitude":40.47903619929406}}
{"_id":{"$oid":"0931dc706267b6e5a28c915f"},"name":"calle de Fernando el Católico, 10, Madrid","coordinates":{"longitude":-3.7075454539176813,"latitude":40.43401697688765}}
{"_id":{"$oid":"96ab5d20b4b823cb40e5662f"},"name":"plaza de la Puerta del Sol, 14, Madrid","coordinates":{"longitude":-3.7025363866912286,"latitude":40.417182622913494}}
{"_id":{"$oid":"d72a324be8de57a8f34831c0"},"name":"calle de la Luna, 6, Madrid","coordinates":{"longitude":-3.705200725293741,"latitude":40.42174299371296}}
{"_id":{"$oid":"8006b61e975fda65032499a8"},"name":"calle de Fernando VI, 29, Madrid","coordinates":{"longitude":-3.6951613475570464,"latitude":40.42440740580086}}
{"_id":{"$oid":"efb85de16cb5f0a396057f58"},"name":"calle José Yañez, 4, Miraflores de la Sierra","coordinates":{"longitude":-3.766070515409168,"latitude":40.81375723416167}}
{"_id":{"$oid":"9abdf4c45a8cfb3a3dab3566"},"name":"calle de los Cuchilleros, 12, Madrid","coordinates":{"longitude":-3.7082434311793224,"latitude":40.41401265649537}}
{"_id":{"$oid":"d41e99d132831b14f7fee010"},"name":"avda de Juan Antonio Samaranch, 29, Madrid","coordinates":{"longitude":-3.615020621726643,"latitude":40.48607771944275}}
{"_id":{"$oid":"7cbc6a22d00a737375edcb63"},"name":"paseo de Marcelino Camacho, 13, Madrid","coordinates":{"longitude":-3.740757077225992,"latitude":40.385583539806}}
{"_id":{"$oid":"e43817eb219a05b466249117"},"name":"calle del General Pardiñas, 20, Madrid","coordinates":{"longitude":-3.678490136220036,"latitude":40.42532626852418}}
{"_id":{"$oid":"9deafec95aa36255db214ba6"},"name":"calle de Jorge Juan, 104, Madrid","coordinates":{"longitude":-3.672904130606814,"latitude":40.42313368329432}}
{"_id":{"$oid":"1d6f151cbc3ecac009f87a09"},"name":"calle de Don Ramón de la Cruz, 59, Madrid","coordinates":{"longitude":-3.6779249590173966,"latitude":40.428915179709136}}
{"_id":{"$oid":"4d205f32a9d12c681fcbd599"},"name":"calle del Marqués de Urquijo, 15, Madrid","coordinates":{"longitude":-3.717842139510516,"latitude":40.42996250542472}}
{"_id":{"$oid":"da502f7a3aacc3c2528f4fe0"},"name":"calle Real, 52, Arganda del Rey","coordinates":{"longitude":-3.4361460408710864,"latitude":40.29985227399981}}
{"_id":{"$oid":"c0ff0c4e5f60828dfc8194ab"},"name":"paseo de la Florida, 8, Madrid","coordinates":{"longitude":-3.721979952063204,"latitude":40.42222501530794}}
{"_id":{"$oid":"d888cec34f57a2b8f429e5cb"},"name":"calle de Preciados, 14, Madrid","coordinates":{"longitude":-3.7045612385991746,"latitude":40.418071205341825}}
{"_id":{"$oid":"6e6eb4d6c2908b30c625409c"},"name":"calle de Trafalgar, 35, Madrid","coordinates":{"longitude":-3.7017799615139286,"latitude":40.43399806587384}}
{"_id":{"$oid":"d57f0f246b648c45b50005e3"},"name":"calle de Ages, 2, Madrid","coordinates":{"longitude":-3.672420925825909,"latitude":40.50475784699365}}
{"_id":{"$oid":"775d834c75ef365a31a9f058"},"name":"calle de Narváez, 3, Madrid","coordinates":{"longitude":-3.6755453368898405,"latitude":40.42437954608486}}
{"_id":{"$oid":"7fd83429b4c6f0a0aa5dea94"},"name":"calle del Espíritu Santo, 10, Madrid","coordinates":{"longitude":-3.702749651175141,"latitude":40.42521738690384}}
{"_id":{"$oid":"072dbad57d4e6e32227950da"},"name":"plaza de la Constitución, 4, Cenicientos","coordinates":{"longitude":-4.467635328117231,"latitude":40.26313117083952}}
{"_id":{"$oid":"1952dba79cd60e88f8bc5d21"},"name":"cllon del Embudo, 0, Colmenar de Oreja","coordinates":{"longitude":-3.3900150614985196,"latitude":40.10821481649727}}
{"_id":{"$oid":"5b1fc5a4dd7eb0f99d2f96b7"},"name":"avda de Andalucía, 6,400, Madrid","coordinates":{"longitude":-3.6948949799390878,"latitude":40.37100321304476}}
{"_id":{"$oid":"a77a9e1c39aac27d34c235d2"},"name":"calle de Cleopatra, 6, Madrid","coordinates":{"longitude":-3.660268261089411,"latitude":40.38222424501759}}
{"_id":{"$oid":"d23af56ec402c4d55eed3a76"},"name":"calle del General Ricardos, 40, Madrid","coordinates":{"longitude":-3.7201280823558274,"latitude":40.395578787900114}}
{"_id":{"$oid":"7365024d33de9b87cf817fa3"},"name":"calle del Conde de Peñalver, 80, Madrid","coordinates":{"longitude":-3.674827964936249,"latitude":40.432807181545506}}
{"_id":{"$oid":"bb187fb608fe5c69ed261e8f"},"name":"calle del Concejal Francisco José Jiménez Martín, 152, Madrid","coordinates":{"longitude":-3.7505216253495623,"latitude":40.400232377906946}}
{"_id":{"$oid":"d76002972170d3f3f7c82a5c"},"name":"calle de Bravo Murillo, 193, Madrid","coordinates":{"longitude":-3.7030437345384635,"latitude":40.454584961992225}}
{"_id":{"$oid":"c97870cd62bc29de05ab243b"},"name":"ctra de Villaverde a Vallecas, 29, Madrid","coordinates":{"longitude":-3.6856630252640623,"latitude":40.35732840502852}}
{"_id":{"$oid":"6ee8aa8db7dabcd71a4ff643"},"name":"calle de San Bernardo, 112, Madrid","coordinates":{"longitude":-3.7050033964863287,"latitude":40.43106854038159}}
{"_id":{"$oid":"ae9cc2ab87cef20f6054eac0"},"name":"calle de Mejía Lequerica, 3, Madrid","coordinates":{"longitude":-3.697951817256745,"latitude":40.42636357109059}}
{"_id":{"$oid":"4de7f658989adfa5fe90e8bf"},"name":"avda de la Ciudad de Barcelona, 53, Madrid","coordinates":{"longitude":-3.677581670561435,"latitude":40.40292607780963}}
{"_id":{"$oid":"3810d34d488323550eefa55c"},"name":"calle de La Adrada, 26, Madrid","coordinates":{"longitude":-3.608562816545272,"latitude":40.36926448293179}}
{"_id":{"$oid":"ba97ad3158d12fdd8f51654f"},"name":"calle de Apodaca, 8, Madrid","coordinates":{"longitude":-3.701002166758127,"latitude":40.42721899126622}}
{"_id":{"$oid":"f15b7bfd5e8bb32fcf169c91"},"name":"calle Nogal, 9, Guadalix de la Sierra","coordinates":{"longitude":-3.695630612449031,"latitude":40.78443950781594}}
{"_id":{"$oid":"140a3352b9dde86980b4afd6"},"name":"calle de Cea Bermúdez, 15, Madrid","coordinates":{"longitude":-3.7088911811446397,"latitude":40.43866639127798}}
{"_id":{"$oid":"1abec1aa56c7371a835471fb"},"name":"calle del Doctor Sanchís Banús, 31, Madrid","coordinates":{"longitude":-3.7097001074387634,"latitude":40.38774229943083}}
{"_id":{"$oid":"05915a11e99fca75d7480069"},"name":"calle de César Cort Botí, 14, Madrid","coordinates":{"longitude":-3.612080964117658,"latitude":40.496282452474304}}
{"_id":{"$oid":"1872713b2308d544b4d2e4b4"},"name":"paseo de Federico García Lorca, 19, Madrid","coordinates":{"longitude":-3.6207374094467903,"latitude":40.37774944497899}}
{"_id":{"$oid":"1488c8f680a906af7c023c2d"},"name":"calle de Hortaleza, 66, Madrid","coordinates":{"longitude":-3.6990482947854617,"latitude":40.42296054135497}}
{"_id":{"$oid":"b325b5b2dba8ffdddf8b229e"},"name":"calle de Lope de Rueda, 3, Madrid","coordinates":{"longitude":-3.677211497607464,"latitude":40.42360402998822}}
{"_id":{"$oid":"530810783a83dd2216ea7425"},"name":"avda de la Albufera, 48, Madrid","coordinates":{"longitude":-3.665660711196876,"latitude":40.39625652949251}}
{"_id":{"$oid":"130f6f47eda36d7706ba1b75"},"name":"avda de la Reina Victoria, 8, Madrid","coordinates":{"longitude":-3.7052187479922605,"latitude":40.44716632350543}}
{"_id":{"$oid":"a0b2944d278c1d4513f49aa8"},"name":"calle de Rodríguez San Pedro, 47, Madrid","coordinates":{"longitude":-3.7137462443246143,"latitude":40.43171759687113}}
{"_id":{"$oid":"dcb16ec7dd1fb06113c82c00"},"name":"calle de Francos Rodríguez, 54, Madrid","coordinates":{"longitude":-3.7066753642180448,"latitude":40.45676100854397}}
{"_id":{"$oid":"ce2ca1cd0bb078cdba1017a1"},"name":"calle de Guzmán el Bueno, 81, Madrid","coordinates":{"longitude":-3.7131442217527635,"latitude":40.43722581864359}}
{"_id":{"$oid":"d3b8291f431eb39e0f9b0a65"},"name":"calle Doctor Benito, 9, Valdemoro","coordinates":{"longitude":-3.678636845285841,"latitude":40.19069835034909}}
{"_id":{"$oid":"423d43bc8c36ec11546f0819"},"name":"calle de Diego de León, 63, Madrid","coordinates":{"longitude":-3.6756844671788356,"latitude":40.434748128094164}}
{"_id":{"$oid":"9f38184439559d352a85bf2c"},"name":"avda de Rafael Alberti, 27, Madrid","coordinates":{"longitude":-3.640787780846209,"latitude":40.38650505082185}}
{"_id":{"$oid":"5888c8af6c7ff17ac10b5858"},"name":"calle de Don Ramón de la Cruz, 91, Madrid","coordinates":{"longitude":-3.6735375157950734,"latitude":40.42872460738508}}
{"_id":{"$oid":"22cacad9d5180a2e0586862e"},"name":"calle de la Princesa, 62, Madrid","coordinates":{"longitude":-3.7163450668685143,"latitude":40.431088909644835}}
{"_id":{"$oid":"2c424e1cc3761fad1e341253"},"name":"calle Juan de Toledo, 25, San Lorenzo de El Escorial","coordinates":{"longitude":-4.139397343240122,"latitude":40.595832138798286}}
{"_id":{"$oid":"9d92ecbd7ff75f0aac0ef6ac"},"name":"avda de Valladolid, 19, Madrid","coordinates":{"longitude":-3.7278754917106918,"latitude":40.42674661399725}}
{"_id":{"$oid":"82c87d0136069e334cf41fde"},"name":"avda de Los Rosales, 16, Madrid","coordinates":{"longitude":-3.691771953184814,"latitude":40.36739126144856}}
{"_id":{"$oid":"160edc8d6c7124e5d119cc37"},"name":"calle de Argumosa, 19, Madrid","coordinates":{"longitude":-3.698494915746905,"latitude":40.408207068793025}}
{"_id":{"$oid":"5cc8e12a604091fe16c99863"},"name":"calle del Padre Claret, 9, Madrid","coordinates":{"longitude":-3.6651143849500585,"latitude":40.446088714467756}}
{"_id":{"$oid":"4df21b5093f1610c88b6dc05"},"name":"avda de Montecarmelo, 7, Madrid","coordinates":{"longitude":-3.6984038497055076,"latitude":40.50305420538593}}
{"_id":{"$oid":"503ba326037e14f4c6b633fc"},"name":"calle de Espoz y Mina, 9, Madrid","coordinates":{"longitude":-3.7022605097113717,"latitude":40.41558969823542}}
{"_id":{"$oid":"8c856d16c766784f9c73228e"},"name":"calle de Alonso Cano, 93, Madrid","coordinates":{"longitude":-3.697418983916644,"latitude":40.444393827201644}}
{"_id":{"$oid":"4ddc7af794140841a14c9b9a"},"name":"calle de Ibiza, 17, Madrid","coordinates":{"longitude":-3.676829802430976,"latitude":40.41845309192723}}
{"_id":{"$oid":"7953fa8029da9b5199041323"},"name":"calle de Jesús del Gran Poder, 11, Madrid","coordinates":{"longitude":-3.702529787356412,"latitude":40.38820951151357}}
{"_id":{"$oid":"b55e48adccb5bdab7a13a9fe"},"name":"calle de Fernando el Santo, 5, Madrid","coordinates":{"longitude":-3.694223269767809,"latitude":40.428331970891065}}
{"_id":{"$oid":"2cf4bbf26e7bcb5dc0434a02"},"name":"plaza de Luca de Tena, 12, Madrid","coordinates":{"longitude":-3.6944691330696866,"latitude":40.401798847956044}}
{"_id":{"$oid":"be167444fe8f688e2accc311"},"name":"calle de Modesto Lafuente, 1, Madrid","coordinates":{"longitude":-3.696618154397442,"latitude":40.435353610774875}}
{"_id":{"$oid":"e747d5543ff05d4cfe3c8075"},"name":"plaza de la Virgen de los Llanos, 7, Madrid","coordinates":{"longitude":-3.779336509790947,"latitude":40.3779965812175}}
{"_id":{"$oid":"11fbf39f6bfcde47b9fa3097"},"name":"calle de Altamirano, 14, Madrid","coordinates":{"longitude":-3.71811614733266,"latitude":40.43133918324273}}
{"_id":{"$oid":"991b9b4aca2773c5d0fb5a37"},"name":"paseo de Extremadura, 40, Madrid","coordinates":{"longitude":-3.7293476955447,"latitude":40.413521089853994}}
{"_id":{"$oid":"fbd906f29a40bd3ca655b000"},"name":"calle de Bravo Murillo, 257, Madrid","coordinates":{"longitude":-3.6998860032329763,"latitude":40.459414920716114}}
{"_id":{"$oid":"225cd814768e8ca390983313"},"name":"calle de Ibiza, 5, Madrid","coordinates":{"longitude":-3.678138835393034,"latitude":40.41851749364227}}
{"_id":{"$oid":"543c6a05ec3d473f085d030a"},"name":"calle de Pilar de Zaragoza, 36, Madrid","coordinates":{"longitude":-3.6698089504920035,"latitude":40.434340877467456}}
{"_id":{"$oid":"ad8662e7f1e889a4549d9704"},"name":"calle de Bravo Murillo, 168, Madrid","coordinates":{"longitude":-3.7028061549075164,"latitude":40.45328911281368}}
{"_id":{"$oid":"f1da6a02e72023f4d8e4bedc"},"name":"plaza de la Constitución, 5, Moralzarzal","coordinates":{"longitude":-3.9723829591414903,"latitude":40.678967978422165}}
{"_id":{"$oid":"0b85c21e3749961547880b56"},"name":"calle de Hortaleza, 2, Madrid","coordinates":{"longitude":-3.700965707518916,"latitude":40.420300275313664}}
{"_id":{"$oid":"17c23e21622baec6f08861dd"},"name":"calle de Alenza, 5, Madrid","coordinates":{"longitude":-3.700757630586862,"latitude":40.443409673436165}}
{"_id":{"$oid":"eab3ab98a02b8b84e35e5371"},"name":"calle del Arenal, 15, Madrid","coordinates":{"longitude":-3.7074656932009513,"latitude":40.4174048182293}}
{"_id":{"$oid":"b2fb72b7029bd929d61b575b"},"name":"calle de Zurbano, 54, Madrid","coordinates":{"longitude":-3.6930937888973694,"latitude":40.434293712256945}}
{"_id":{"$oid":"6353aa4dfaf5e19a9437cf74"},"name":"plaza de Don Antonio de Andrés, 12, Madrid","coordinates":{"longitude":-3.605242787179009,"latitude":40.40234537223512}}
{"_id":{"$oid":"ab642ae2e0f1d27ff06a57cf"},"name":"calle Cristo, 4, Campo Real","coordinates":{"longitude":-3.381491616549722,"latitude":40.33783929601677}}
{"_id":{"$oid":"53d841fe9f1cd0bbbc29601e"},"name":"calle del Marqués de Santillana, 16, Colmenar Viejo","coordinates":{"longitude":-3.768040399261981,"latitude":40.659437025432496}}
{"_id":{"$oid":"80e0ac8f5764f56dfa2ce061"},"name":"calle de Velázquez, 30, Madrid","coordinates":{"longitude":-3.6839191833697407,"latitude":40.42478977348352}}
{"_id":{"$oid":"bff544f3d95cbdfe90f17bae"},"name":"calle del General Oraa, 59, Madrid","coordinates":{"longitude":-3.6778781752744463,"latitude":40.435996548642244}}
{"_id":{"$oid":"4f684f082cda9a5b4b77f3c3"},"name":"avda de Menéndez Pelayo, 45, Madrid","coordinates":{"longitude":-3.6782097623607055,"latitude":40.41736391939448}}
{"_id":{"$oid":"7e9ea2b990faa3eaf887e7b6"},"name":"calle del Acuerdo, 38, Madrid","coordinates":{"longitude":-3.707639234665371,"latitude":40.42946684868301}}
{"_id":{"$oid":"5add081fd634ff24d74bd112"},"name":"calle de Tribulete, 25, Madrid","coordinates":{"longitude":-3.7033768538154153,"latitude":40.407339630702396}}
{"_id":{"$oid":"cec985fb9b1903bd03783f12"},"name":"ctra de Canillas, 140, Madrid","coordinates":{"longitude":-3.639233388950691,"latitude":40.46503651422254}}
{"_id":{"$oid":"72a82c1ad52efef045be0d22"},"name":"calle de Raimundo Fernández Villaverde, 33, Madrid","coordinates":{"longitude":-3.7002278473856225,"latitude":40.4468993666832}}
{"_id":{"$oid":"930015fa738bf16ca8b05701"},"name":"calle de Melilla, 35, Madrid","coordinates":{"longitude":-3.7090588030206075,"latitude":40.40073732046085}}
{"_id":{"$oid":"950f6ee7dd68115bc7ae60d4"},"name":"calle del Príncipe de Vergara, 60, Madrid","coordinates":{"longitude":-3.6793370161960963,"latitude":40.432168159260286}}
{"_id":{"$oid":"a435d3d471eb7c0978bd4a4f"},"name":"calle de Samuel Baltes, 16, Villarejo de Salvanés","coordinates":{"longitude":-3.278245451162019,"latitude":40.167009357136244}}
{"_id":{"$oid":"3769165295df402831a44c84"},"name":"calle de Luchana, 14, Madrid","coordinates":{"longitude":-3.7005586874842393,"latitude":40.42992438704945}}
{"_id":{"$oid":"a7f4c0ad38c33d768fdb3be8"},"name":"calle del Capitán Blanco Argibay, 45, Madrid","coordinates":{"longitude":-3.700257277788142,"latitude":40.465637872483114}}
{"_id":{"$oid":"53c406a89231be89aaafe4f4"},"name":"calle de Pico Balaitus, 16, Madrid","coordinates":{"longitude":-3.720820799461943,"latitude":40.48255639347484}}
{"_id":{"$oid":"f1016608c5aaefa4fd52a289"},"name":"avda de Niza, 10, Madrid","coordinates":{"longitude":-3.605970262707174,"latitude":40.428269674450334}}
{"_id":{"$oid":"5d3e23cf5de3519dd54ae28c"},"name":"calle de la Isla Malaita, 7, Madrid","coordinates":{"longitude":-3.7220863152671666,"latitude":40.47403504349958}}
{"_id":{"$oid":"f2463f64237acc530c94ae3d"},"name":"plaza de la Corredera, 4, San Martín de Valdeiglesias","coordinates":{"longitude":-4.4004656246906455,"latitude":40.36120548121118}}
{"_id":{"$oid":"98e391f068dcb9b677f21e36"},"name":"calle de Galileo, 29, Madrid","coordinates":{"longitude":-3.7105023009320472,"latitude":40.43266550791513}}
{"_id":{"$oid":"e0ce69057c8822f0b1d1eb06"},"name":"plaza de la Marina Española, 6, Madrid","coordinates":{"longitude":-3.712401103556266,"latitude":40.420437584979275}}
{"_id":{"$oid":"5a13a4517d5fc3018de2dbea"},"name":"calle de la Palma, 75, Madrid","coordinates":{"longitude":-3.7090611101895794,"latitude":40.426782456687086}}
{"_id":{"$oid":"105c3a32b2007a715daf7c56"},"name":"calle del Divino Pastor, 28, Madrid","coordinates":{"longitude":-3.705348351464142,"latitude":40.42797634157669}}
{"_id":{"$oid":"314caa09135c1706043b68e8"},"name":"plaza de Cascorro, 6, Madrid","coordinates":{"longitude":-3.7071581943229166,"latitude":40.41055081565827}}
{"_id":{"$oid":"b40599012e4fba194cafae6a"},"name":"calle de la Cruz, 13, Madrid","coordinates":{"longitude":-3.7014719696098686,"latitude":40.41570259369299}}
{"_id":{"$oid":"bd54b64f43266c88e9893d62"},"name":"calle del Alcalde López Casero, 9, Madrid","coordinates":{"longitude":-3.6557927433110264,"latitude":40.43334916174768}}
{"_id":{"$oid":"c849da2eb654f7547cff830a"},"name":"plaza de Clarín, 8, Rivas-Vaciamadrid","coordinates":{"longitude":-3.5539757007777966,"latitude":40.361520691474816}}
{"_id":{"$oid":"ceea6af45434d9d70a8fbfaa"},"name":"calle del Príncipe de Vergara, 12, Madrid","coordinates":{"longitude":-3.6800353247824797,"latitude":40.4242451144695}}
{"_id":{"$oid":"49573f8a8e6756c81d7dfe81"},"name":"calle San Félix de Alcalá, 2, Alcalá de Henares","coordinates":{"longitude":-3.365761223510682,"latitude":40.485639844424036}}
{"_id":{"$oid":"ba836f0fcc53cf4b67f39d6a"},"name":"calle de Fuencarral, 114, Madrid","coordinates":{"longitude":-3.7023948837609075,"latitude":40.42964297484019}}
{"_id":{"$oid":"32b6d1ac40ba69dff2c5a609"},"name":"calle de Guzmán el Bueno, 34, Madrid","coordinates":{"longitude":-3.711777948917982,"latitude":40.436243247955225}}
{"_id":{"$oid":"f0081638f348852fe7fd3df1"},"name":"calle de la Raza, 4, Madrid","coordinates":{"longitude":-3.611991459839267,"latitude":40.4474452238197}}
{"_id":{"$oid":"d5ddb3f94dce4fcdc028242f"},"name":"calle de Santa Engracia, 107, Madrid","coordinates":{"longitude":-3.699987197183702,"latitude":40.43734227028413}}
{"_id":{"$oid":"156353653599bc3cec22441b"},"name":"calle de Santa Engracia, 163, Madrid","coordinates":{"longitude":-3.7032370372214203,"latitude":40.44484506589658}}
{"_id":{"$oid":"fd6b509af0498ac29ac1fb1e"},"name":"calle de la Laguna Negra, 13, Madrid","coordinates":{"longitude":-3.6295650882077615,"latitude":40.404783089562684}}
{"_id":{"$oid":"b76fa6b11b44c6b002a42585"},"name":"avda de la Reina Victoria, 44, Madrid","coordinates":{"longitude":-3.7113475764849824,"latitude":40.44686751026126}}
{"_id":{"$oid":"daa99b3f57f051d3ad79adf2"},"name":"calle del Arroyo de las Pilillas, 48, Madrid","coordinates":{"longitude":-3.6520740170496144,"latitude":40.408424132913964}}
{"_id":{"$oid":"9d43f217ef61074e20c6f8bd"},"name":"calle de Andrés Mellado, 15, Madrid","coordinates":{"longitude":-3.7146567471826093,"latitude":40.43197323337217}}
{"_id":{"$oid":"ee6bb2441c33d92ccc042b6d"},"name":"avda Pocito de las Nieves, 16, Rozas de Madrid, Las","coordinates":{"longitude":-3.8718579793090737,"latitude":40.49392992619605}}
{"_id":{"$oid":"39ca844a3f254e665ceaab03"},"name":"calle Colmenar, 12, Chapinería","coordinates":{"longitude":-4.209531688433143,"latitude":40.37994560649199}}
{"_id":{"$oid":"1f89fad351fe6a12248451fc"},"name":"calle Floridablanca, 16, San Lorenzo de El Escorial","coordinates":{"longitude":-4.146614611938942,"latitude":40.590778958898085}}
{"_id":{"$oid":"93901832c6331698d9aac2bf"},"name":"calle de Recoletos, 17, Madrid","coordinates":{"longitude":-3.68939265443817,"latitude":40.42168518307715}}
{"_id":{"$oid":"be33df99a09ae78097e97eb7"},"name":"avda de Las Suertes, 13, Madrid","coordinates":{"longitude":-3.6085874520473413,"latitude":40.3720031322923}}
{"_id":{"$oid":"cc85521b3f203a987436ece6"},"name":"paseo de las Acacias, 7, Madrid","coordinates":{"longitude":-3.7039359549539213,"latitude":40.40444432012355}}
{"_id":{"$oid":"1eb9f668123809bfa4b8816f"},"name":"calle del General Pardiñas, 64, Madrid","coordinates":{"longitude":-3.6781204501914306,"latitude":40.42959871955586}}
{"_id":{"$oid":"653dcba9083ba59fb8b53564"},"name":"calle Real, 38, Buitrago del Lozoya","coordinates":{"longitude":-3.63704523106643,"latitude":40.99337475133116}}
{"_id":{"$oid":"abe1877aed9116ffbf607361"},"name":"calle de la Princesa, 16, Madrid","coordinates":{"longitude":-3.7126597572436624,"latitude":40.42595852614876}}
{"_id":{"$oid":"79302b9a31df92d3819c6fe0"},"name":"calle de Antonio López, 67, Madrid","coordinates":{"longitude":-3.7072199325696436,"latitude":40.39392871541035}}
{"_id":{"$oid":"a86be558ef626fd012745147"},"name":"calle de Alburquerque, 23, Madrid","coordinates":{"longitude":-3.700809233341411,"latitude":40.43134629400785}}
{"_id":{"$oid":"641db95a5ad26d422c4a6065"},"name":"avda del Doctor Arce, 32, Madrid","coordinates":{"longitude":-3.678993126927325,"latitude":40.448377395414795}}
{"_id":{"$oid":"58bb022022a0e97ef0efcf46"},"name":"calle de López de Hoyos, 7, Madrid","coordinates":{"longitude":-3.6874976319905155,"latitude":40.43701181515653}}
{"_id":{"$oid":"01e1e94066b791c204426055"},"name":"calle de Matilde Hernández, 9, Madrid","coordinates":{"longitude":-3.7333566134730813,"latitude":40.39194607235526}}
{"_id":{"$oid":"e569fa79b24e0d235db9438d"},"name":"calle del León, 13, Madrid","coordinates":{"longitude":-3.698778925371343,"latitude":40.41401619169744}}
{"_id":{"$oid":"e8b66444e61db98a3488a769"},"name":"calle de Arturo Soria, 337, Madrid","coordinates":{"longitude":-3.6653770462502173,"latitude":40.48227627953949}}
{"_id":{"$oid":"88cc47a16ad34cf7ff0c4ffa"},"name":"avda de la Paz, 15, Perales de Tajuña","coordinates":{"longitude":-3.3520579087746083,"latitude":40.23118106736157}}
{"_id":{"$oid":"2908f822262eea515ec7b5f1"},"name":"plaza de San Miguel, 8, Madrid","coordinates":{"longitude":-3.7095194537165876,"latitude":40.41542826182227}}
{"_id":{"$oid":"e1cfa1b64093661da8f4ac3e"},"name":"calle de López de Hoyos, 83, Madrid","coordinates":{"longitude":-3.6738724405157983,"latitude":40.44456051447765}}
{"_id":{"$oid":"68080b14352deaeb32ef532b"},"name":"calle de Bravo Murillo, 75, Madrid","coordinates":{"longitude":-3.7042793383705335,"latitude":40.443027911318026}}
{"_id":{"$oid":"8ff837f8cd4d86215c3a0c88"},"name":"calle del Patrimonio Mundial, 9, Aranjuez","coordinates":{"longitude":-3.6063883033657045,"latitude":40.0586233347406}}
{"_id":{"$oid":"93a22ab8e768c5a7ba37bacc"},"name":"calle de Peña Nueva, 74, Madrid","coordinates":{"longitude":-3.6204725341137918,"latitude":40.37070572473967}}
{"_id":{"$oid":"96329807b515890e34753937"},"name":"calle de Francisco Silvela, 56, Madrid","coordinates":{"longitude":-3.674662389107164,"latitude":40.43511445830232}}
{"_id":{"$oid":"1b75246a3171d90f90484118"},"name":"avda de Felipe II, 13, Madrid","coordinates":{"longitude":-3.673952300765315,"latitude":40.42421767180162}}
{"_id":{"$oid":"c1337f1e9bfa6b7ff4ca5436"},"name":"calle de Riaza, 45, Madrid","coordinates":{"longitude":-3.783178951236544,"latitude":40.456448156949975}}
{"_id":{"$oid":"84e62001a82e88ec56ad0619"},"name":"calle Solana, s/n, Torrejón de Ardoz","coordinates":{"longitude":-3.471080588320109,"latitude":40.45534861158354}}
{"_id":{"$oid":"7ccc3baddc6f070656a2eefb"},"name":"calle de Raimundo Fernández Villaverde, 16, Madrid","coordinates":{"longitude":-3.70200461157261,"latitude":40.44652823043821}}
{"_id":{"$oid":"67208af6e851f1e628f063f9"},"name":"calle Tinte, 2, Alcalá de Henares","coordinates":{"longitude":-3.3641944192354143,"latitude":40.48391506094376}}
{"_id":{"$oid":"c92eb35e5ea1c5d80697e168"},"name":"avda de Madrid, 23, Lozoyuela-Navas-Sieteiglesias","coordinates":{"longitude":-3.6170125103481867,"latitude":40.92195836558287}}
{"_id":{"$oid":"0078f3bf6db09213f4af0f0b"},"name":"calle de los Jardines, 11, Madrid","coordinates":{"longitude":-3.7009992963409357,"latitude":40.41899376102023}}
{"_id":{"$oid":"d6347499043a21504e22d60e"},"name":"paseo de las Delicias, 72, Madrid","coordinates":{"longitude":-3.6943821684858116,"latitude":40.39906962187506}}
{"_id":{"$oid":"e706f2c17de5e2b0a7f22250"},"name":"calle de Alcalá, 409, Madrid","coordinates":{"longitude":-3.639924914703209,"latitude":40.437221878746065}}
{"_id":{"$oid":"30205351fb909e01d08c02ca"},"name":"calle de Antonio López, 139, Madrid","coordinates":{"longitude":-3.6994933961100753,"latitude":40.388534227996175}}
{"_id":{"$oid":"511cb20656fd67aa6f975653"},"name":"calle de San Bernardo, 55, Madrid","coordinates":{"longitude":-3.7072946082624427,"latitude":40.425829311687465}}
{"_id":{"$oid":"02ab26b200235ade1cf146fd"},"name":"avda de los Toreros, 41, Madrid","coordinates":{"longitude":-3.6677494281114695,"latitude":40.432334769568385}}
{"_id":{"$oid":"299129cef221f9087512b49d"},"name":"calle de Barquillo, 7, Madrid","coordinates":{"longitude":-3.695793046192066,"latitude":40.42050269306314}}
{"_id":{"$oid":"f29d1ea5bf539a44eb973f22"},"name":"calle de Bravo Murillo, 306, Madrid","coordinates":{"longitude":-3.696574563288767,"latitude":40.463110586107625}}
{"_id":{"$oid":"3918f74b9ee6935d308b3c4c"},"name":"gta de Embajadores, 5, Madrid","coordinates":{"longitude":-3.7023804584364957,"latitude":40.40445377973604}}
{"_id":{"$oid":"a58a8f2fefd97f8fc136091e"},"name":"calle de Clara del Rey, 60, Madrid","coordinates":{"longitude":-3.6676111997202288,"latitude":40.44696621340626}}
{"_id":{"$oid":"eb33a1e8114b834c19f2481d"},"name":"calle de Monasterio de Liébana, 5, Madrid","coordinates":{"longitude":-3.6951015535105234,"latitude":40.506704706266596}}
{"_id":{"$oid":"cc03411546226a3720698f57"},"name":"avda de la Reina Victoria, 3, Madrid","coordinates":{"longitude":-3.7044825945553215,"latitude":40.44668432641504}}
{"_id":{"$oid":"70da9723d44aa948f921af72"},"name":"calle de Toledo, 66, Madrid","coordinates":{"longitude":-3.7097427802441287,"latitude":40.40976020051741}}
{"_id":{"$oid":"f4b2d866963686a422481b1b"},"name":"calle de Donoso Cortés, 86, Madrid","coordinates":{"longitude":-3.7159086986465195,"latitude":40.436632155317305}}
{"_id":{"$oid":"5aa9d61d54e01fc9f984bdff"},"name":"calle Juan de la Cierva, 20, Arganda del Rey","coordinates":{"longitude":-3.4407695990525404,"latitude":40.30154651684355}}
{"_id":{"$oid":"73e8aa07d4f27ead3018a1c7"},"name":"calle de Santa Engracia, 34, Madrid","coordinates":{"longitude":-3.697278743435267,"latitude":40.431962237318324}}
{"_id":{"$oid":"f0facdc2465b0798d2fb06d9"},"name":"calle de Monasterio de Caaveiro, 13, Madrid","coordinates":{"longitude":-3.6976856621691243,"latitude":40.50549995804325}}
{"_id":{"$oid":"8c58b3e813da2be627aa80a3"},"name":"calle de Preciados, 35, Madrid","coordinates":{"longitude":-3.7072064038527817,"latitude":40.41965866422717}}
{"_id":{"$oid":"bab189b7065eba332e9ddede"},"name":"calle de Alcalá, 219, Madrid","coordinates":{"longitude":-3.6657551636911743,"latitude":40.42976067911955}}
{"_id":{"$oid":"46379b8c460daccafd70d8a5"},"name":"calle de Alcalá, 157, Madrid","coordinates":{"longitude":-3.6743437182075134,"latitude":40.4256388175415}}
{"_id":{"$oid":"70b866cac59186a9f930fcf2"},"name":"calle de las Azucenas, 24, Madrid","coordinates":{"longitude":-3.698903833639704,"latitude":40.46365508178142}}
{"_id":{"$oid":"6d40e1e573052b9ce8f6998f"},"name":"plaza de Puerta Cerrada, 5, Madrid","coordinates":{"longitude":-3.708558432757818,"latitude":40.41370441890972}}
{"_id":{"$oid":"a8b304b21bc456d17bc5bc17"},"name":"avda de la Constitución, 14, Robledo de Chavela","coordinates":{"longitude":-4.238480073352991,"latitude":40.49967212956799}}
{"_id":{"$oid":"97ec40c15540421062944fe8"},"name":"calle del Marqués de Urquijo, 27, Madrid","coordinates":{"longitude":-3.719111072907823,"latitude":40.42955822250261}}
{"_id":{"$oid":"e525e72ca81110bddeb82daf"},"name":"avda de Felipe II, 1, Madrid","coordinates":{"longitude":-3.6760851315826164,"latitude":40.424133146624676}}
{"_id":{"$oid":"3c195941ded27d9bb6609d1d"},"name":"calle de la Doctora, 4, Navalcarnero","coordinates":{"longitude":-4.013548540586807,"latitude":40.289874222509006}}
{"_id":{"$oid":"0a076f220bb59ad5012be0c6"},"name":"calle de Serrano, 186, Madrid","coordinates":{"longitude":-3.683029383609644,"latitude":40.44869595871954}}
{"_id":{"$oid":"764fc035a4564108bb8d449b"},"name":"calle de Don Ramón de la Cruz, 26, Madrid","coordinates":{"longitude":-3.683242524476439,"latitude":40.428982974820954}}
{"_id":{"$oid":"adb33f8b2f239d2459662bea"},"name":"paseo de las Delicias, 50, Madrid","coordinates":{"longitude":-3.6942077033163807,"latitude":40.40044004835145}}
{"_id":{"$oid":"a0609021430fad00342c6b41"},"name":"calle de Segovia, 8, Madrid","coordinates":{"longitude":-3.7104079289965934,"latitude":40.413611988194425}}
{"_id":{"$oid":"25ac360cb055f2bd85b325f0"},"name":"calle del Duque de Rivas, 3, Madrid","coordinates":{"longitude":-3.706315764574896,"latitude":40.4133938155218}}
{"_id":{"$oid":"54a3ef1505321e832df6b029"},"name":"calle del Camino de los Vinateros, 0, Madrid","coordinates":{"longitude":-3.660713796891865,"latitude":40.41214087387234}}
{"_id":{"$oid":"896b28f3c8ba49e0aa8e1500"},"name":"avda de España, 54, Molar, El","coordinates":{"longitude":-3.5829148596507028,"latitude":40.734976438444036}}
{"_id":{"$oid":"6db12975e90a40de3d035b9b"},"name":"calle Fuente de la Salud, 25, Griñón","coordinates":{"longitude":-3.853059625102196,"latitude":40.214509257490576}}
{"_id":{"$oid":"871acb45406f9576eb9edf3a"},"name":"calle de San Romualdo, 51, Madrid","coordinates":{"longitude":-3.6196968074173137,"latitude":40.43514288510375}}
{"_id":{"$oid":"567f2c4712918c4c08fc2c4d"},"name":"calle de la Princesa, 72, Madrid","coordinates":{"longitude":-3.7171345076831797,"latitude":40.43215608810589}}
{"_id":{"$oid":"c5b8d238912c89e30916e92b"},"name":"calle de la Buena Madre, 9, Pinto","coordinates":{"longitude":-3.6988297005210358,"latitude":40.242030626718915}}
{"_id":{"$oid":"ed32b5d28fc0bd1c97c2cc46"},"name":"calle de Alcalá, 172, Madrid","coordinates":{"longitude":-3.6663143468589845,"latitude":40.429081780026294}}
{"_id":{"$oid":"1859978d760be7d9414c9cf5"},"name":"calle del Alcalde Sáinz de Baranda, 9, Madrid","coordinates":{"longitude":-3.676828408546322,"latitude":40.41713777891449}}
{"_id":{"$oid":"38e8b0fe6ae9a2c7d17910ff"},"name":"calle del Rincón de la Victoria, 6, Madrid","coordinates":{"longitude":-3.641978053662102,"latitude":40.38405698025732}}
{"_id":{"$oid":"502bfbcfe668be36cdd1333c"},"name":"calle Juan Muñoz, 10, Leganés","coordinates":{"longitude":-3.766145351644663,"latitude":40.3293273767528}}
{"_id":{"$oid":"6c2997bb1efdf01e856599ed"},"name":"calle de Jerónimo de la Quintana, 2, Madrid","coordinates":{"longitude":-3.7037574560934186,"latitude":40.431427483529376}}
{"_id":{"$oid":"00e13514187b92b4271f1c09"},"name":"calle de la Constitución, 12, Navalcarnero","coordinates":{"longitude":-4.013830071279013,"latitude":40.28745731201942}}
{"_id":{"$oid":"ef9333d6250f2b861c8048d8"},"name":"calle de Platerías, 3, Madrid","coordinates":{"longitude":-3.6782789206116138,"latitude":40.46765181085742}}
{"_id":{"$oid":"24370adddc9a46c66520e8f5"},"name":"calle de Marcelo Usera, 79, Madrid","coordinates":{"longitude":-3.7061090652594166,"latitude":40.385719220457844}}
{"_id":{"$oid":"4bc556d929cc052029e14a78"},"name":"calle de San Antonio, 86, Aranjuez","coordinates":{"longitude":-3.6026007058134595,"latitude":40.03328094813715}}
{"_id":{"$oid":"2590bcae6cead45ace0188a7"},"name":"calle de Toledo, 53, Madrid","coordinates":{"longitude":-3.707912834189914,"latitude":40.411708365087236}}
{"_id":{"$oid":"a6171ca86fdde947f48246fd"},"name":"calle de Elvira, 17, Madrid","coordinates":{"longitude":-3.665173791725119,"latitude":40.42220544107217}}
{"_id":{"$oid":"071adfdc03228bbb1a9edce3"},"name":"calle de Santa Engracia, 4, Madrid","coordinates":{"longitude":-3.695662550359183,"latitude":40.42843142749426}}
{"_id":{"$oid":"64c5a84a50a95f6d89062471"},"name":"calle de Fucar, 10, Madrid","coordinates":{"longitude":-3.6956907866107684,"latitude":40.4117194886041}}
{"_id":{"$oid":"80bfb16cfbe7770b8bb2f7ce"},"name":"calle de Fuentespina, 23, Madrid","coordinates":{"longitude":-3.6058459401083147,"latitude":40.37891852414476}}
{"_id":{"$oid":"36f10808dde7da27e2edeebc"},"name":"calle de Miguel Ángel, 22, Madrid","coordinates":{"longitude":-3.6910491067421884,"latitude":40.436107756345464}}
{"_id":{"$oid":"18e2888430c7fb27c64f2842"},"name":"calle de Segovia, 45, Madrid","coordinates":{"longitude":-3.7175152388653494,"latitude":40.41362215362617}}
{"_id":{"$oid":"06e2395be348dd468a522ae7"},"name":"avda del Monte Igueldo, 31, Madrid","coordinates":{"longitude":-3.668217117035404,"latitude":40.39619673905368}}
{"_id":{"$oid":"8d7091ced8d4e1e6c8ce97b1"},"name":"calle Gran Vía, 12, Madrid","coordinates":{"longitude":-3.698896391547232,"latitude":40.41967316123789}}
{"_id":{"$oid":"0c8be877d175a4da6a87a63a"},"name":"calle de Lagasca, 130, Madrid","coordinates":{"longitude":-3.684154637307627,"latitude":40.43639200741377}}
{"_id":{"$oid":"65d7c9c45d312d86f1339f5b"},"name":"calle de las Infantas, 42, Madrid","coordinates":{"longitude":-3.697497026620174,"latitude":40.41999692839636}}
{"_id":{"$oid":"079586d53804b189753834bf"},"name":"calle de las Islas Aleutianas, 5, Madrid","coordinates":{"longitude":-3.7294826045432283,"latitude":40.47508768972648}}
{"_id":{"$oid":"4fc99ef6648a3e6948e51d21"},"name":"calle de Carranza, 9, Madrid","coordinates":{"longitude":-3.703579509776941,"latitude":40.42905919391244}}
{"_id":{"$oid":"9e2e67570522a1ab4863a64d"},"name":"calle del Jazmín, 21, Madrid","coordinates":{"longitude":-3.6647161732744795,"latitude":40.481063873530005}}
{"_id":{"$oid":"3a8b4dc748c46291d339a896"},"name":"calle de Carlos Martín Álvarez, 35, Madrid","coordinates":{"longitude":-3.6621527331685004,"latitude":40.38939372478324}}
{"_id":{"$oid":"34ec809a4e1686b7f6fc7474"},"name":"calle de Alcalá, 121, Madrid","coordinates":{"longitude":-3.680645355902599,"latitude":40.422782060280376}}
{"_id":{"$oid":"b157cf72825c6fcc2374e0a4"},"name":"calle de Benito Gutiérrez, 25, Madrid","coordinates":{"longitude":-3.7197778759856543,"latitude":40.43128380404415}}
{"_id":{"$oid":"10e0eb7b124617fe7488ae90"},"name":"calle del Puerto Alto, 3, Madrid","coordinates":{"longitude":-3.6661546723874108,"latitude":40.39496538542303}}
{"_id":{"$oid":"303a1617498ce0d991249674"},"name":"calle de Bravo Murillo, 108, Madrid","coordinates":{"longitude":-3.7035996915109632,"latitude":40.447959972065306}}
{"_id":{"$oid":"10e12c3beadfdc31eebd8e15"},"name":"calle de Barquillo, 31, Madrid","coordinates":{"longitude":-3.6956673783853136,"latitude":40.42317913333259}}
{"_id":{"$oid":"5c1dd4ecf04bafe12d9da3bb"},"name":"calle de Lavapiés, 56, Madrid","coordinates":{"longitude":-3.7017087819409302,"latitude":40.40899842352607}}
{"_id":{"$oid":"d94ca8125a2538d13e9c40a1"},"name":"plaza de Ventura Rodríguez, 9, Ciempozuelos","coordinates":{"longitude":-3.6168977313204067,"latitude":40.159051288163546}}
{"_id":{"$oid":"acd497ceb8c06d4e51cad301"},"name":"calle del General Lacy, 8, Madrid","coordinates":{"longitude":-3.6908792808223065,"latitude":40.40453208275569}}
{"_id":{"$oid":"42b9a9d51b7591eb13fff17d"},"name":"calle de Raimundo Fernández Villaverde, 52, Madrid","coordinates":{"longitude":-3.695456749406615,"latitude":40.44621645811208}}
{"_id":{"$oid":"423d602dbfc7b8b485df8ec9"},"name":"plaza del Emperador Carlos V, 8, Madrid","coordinates":{"longitude":-3.6929819667174897,"latitude":40.40846546865078}}
{"_id":{"$oid":"362fac7c0d31e5162db1d171"},"name":"calle de los Reyes, 15, Madrid","coordinates":{"longitude":-3.709656235847073,"latitude":40.423958979544416}}
{"_id":{"$oid":"ee646a55ffdd26a718279b85"},"name":"calle del Doctor Esquerdo, 21, Madrid","coordinates":{"longitude":-3.668299051074179,"latitude":40.42592617031124}}
{"_id":{"$oid":"ef5d1153b9fde31025f9ce0f"},"name":"calle de Miguel Servet, 1, Madrid","coordinates":{"longitude":-3.700585778204147,"latitude":40.40753675739415}}
{"_id":{"$oid":"2e2b4693667d755476bf3e63"},"name":"calle de José Antonio Fernández Ordóñez, 45, Madrid","coordinates":{"longitude":-3.6072494178467625,"latitude":40.491803465311335}}
{"_id":{"$oid":"47ae61e9cb3ab608c3222202"},"name":"calle del General Castaños, 13, Madrid","coordinates":{"longitude":-3.6937992335249334,"latitude":40.426073250016216}}
{"_id":{"$oid":"b54af02c2056cf22e2be8525"},"name":"calle de Fernández de la Hoz, 72, Madrid","coordinates":{"longitude":-3.694344856641795,"latitude":40.439006928644794}}
{"_id":{"$oid":"dda910610fb3dec14961f3cf"},"name":"calle Mayor, 13, Madrid","coordinates":{"longitude":-3.706204192972523,"latitude":40.41625036423261}}
{"_id":{"$oid":"4dd5ebe1b3a605b8f17247d3"},"name":"calle de Fernández de los Ríos, 53, Madrid","coordinates":{"longitude":-3.711683928489671,"latitude":40.43515373649244}}
{"_id":{"$oid":"02fc132715255ff47d13a77d"},"name":"calle de Alcalá, 173, Madrid","coordinates":{"longitude":-3.6722550803158365,"latitude":40.426614948434704}}
{"_id":{"$oid":"4ca3dbc975a7ea9a733be234"},"name":"calle de Santa Engracia, 40, Madrid","coordinates":{"longitude":-3.6976310479608516,"latitude":40.43296912212962}}
{"_id":{"$oid":"3ab856d081bffe21c4df991b"},"name":"calle de los Mártires de la Ventilla, 68, Madrid","coordinates":{"longitude":-3.6931806246193415,"latitude":40.47143725795889}}
{"_id":{"$oid":"3c415c6df817301fdf027ab2"},"name":"plaza España, 12, Leganés","coordinates":{"longitude":-3.7643382994910772,"latitude":40.32775371972165}}
{"_id":{"$oid":"926f77b6d88e4df380a8b85a"},"name":"calle de Jorge Juan, 34, Madrid","coordinates":{"longitude":-3.6831177444847083,"latitude":40.42364135497087}}
{"_id":{"$oid":"358cbd7614642e647b0c13a8"},"name":"calle de Fuentespina, 14, Madrid","coordinates":{"longitude":-3.6077136308415403,"latitude":40.37962945454486}}
{"_id":{"$oid":"2155fb1766555908ae6e755a"},"name":"calle de Federico García Lorca, 25, Álamo, El","coordinates":{"longitude":-3.9892132936703066,"latitude":40.23215588552499}}
{"_id":{"$oid":"cfb3aebf712c1ef0fe31aecc"},"name":"plaza de los Herradores, 2, Madrid","coordinates":{"longitude":-3.7085036186145093,"latitude":40.41634440461727}}
{"_id":{"$oid":"cc275e23de54e83e11fd5961"},"name":"avda de Manuel Fraga Iribarne, 43, Madrid","coordinates":{"longitude":-3.6093531287961453,"latitude":40.48955817147642}}
{"_id":{"$oid":"8d84c006aec32614b3f15c58"},"name":"calle de Fernández de los Ríos, 40, Madrid","coordinates":{"longitude":-3.7083711995449167,"latitude":40.435183091846945}}
{"_id":{"$oid":"64a2c108d200c3abc4c2a2d7"},"name":"calle de Jorge Juan, 8, Madrid","coordinates":{"longitude":-3.687068742141529,"latitude":40.42383415909808}}
{"_id":{"$oid":"6057deb509826183eae23204"},"name":"calle de San Epifanio, 7, Madrid","coordinates":{"longitude":-3.7186706920652446,"latitude":40.4014707751664}}
{"_id":{"$oid":"587ae1ae8513bcee4460624f"},"name":"calle de Bolívar, 6, Madrid","coordinates":{"longitude":-3.6940437559222086,"latitude":40.39135988230934}}
{"_id":{"$oid":"299c6d8cfdbfd0f6983e62dc"},"name":"calle del Marqués de Viana, 74, Madrid","coordinates":{"longitude":-3.704651474478066,"latitude":40.46398054409545}}
{"_id":{"$oid":"16ebaa7c4b291f4a9c32d13e"},"name":"calle de San Bernardino, 11, Madrid","coordinates":{"longitude":-3.7108136534558054,"latitude":40.4252852053712}}
{"_id":{"$oid":"dda3281cdb6a12de0e730c7e"},"name":"calle de José María Fernández Lanseros, 3, Madrid","coordinates":{"longitude":-3.657401495376332,"latitude":40.431475155011185}}
{"_id":{"$oid":"0011a775cb12895ebf8ab304"},"name":"calle de Toledo, 46, Madrid","coordinates":{"longitude":-3.7079902494064414,"latitude":40.41234753350451}}
{"_id":{"$oid":"0fcaf3205e3ad2c949e3a633"},"name":"calle de Sagasta, 21, Madrid","coordinates":{"longitude":-3.6988580087183456,"latitude":40.42849323630091}}
{"_id":{"$oid":"fa44f7456d9bcb87d0820997"},"name":"calle de Tumaco, 20, Madrid","coordinates":{"longitude":-3.6343662079767656,"latitude":40.445432709976146}}
{"_id":{"$oid":"27886f7d5a00315e5f2a6bf6"},"name":"calle de Fernando el Católico, 74, Madrid","coordinates":{"longitude":-3.7153671348925132,"latitude":40.43448235447521}}
{"_id":{"$oid":"eb415a1a9256806410dd75fd"},"name":"calle Mayor, 44, Madrid","coordinates":{"longitude":-3.7088541770130035,"latitude":40.4160539665107}}
{"_id":{"$oid":"225a3f98f5c9a5b2aa411dd6"},"name":"calle de la Hacienda de Pavones, 4, Madrid","coordinates":{"longitude":-3.650556507129864,"latitude":40.40504526943622}}
{"_id":{"$oid":"ec6fb192dd6082a7c76843c0"},"name":"avda del Doctor Federico Rubio y Galí, 42, Madrid","coordinates":{"longitude":-3.709250871993476,"latitude":40.45157407789644}}
{"_id":{"$oid":"81b54d3debaeac8bfca209af"},"name":"calle de O'Donnell, 47, Madrid","coordinates":{"longitude":-3.6742212657005857,"latitude":40.42163951756567}}
{"_id":{"$oid":"4d7d16668de8324c13125a78"},"name":"paseo de las Delicias, 115, Madrid","coordinates":{"longitude":-3.6945935600719073,"latitude":40.39326650659285}}
{"_id":{"$oid":"12acdb25ded886e7a652bb17"},"name":"calle de la Virgen de los Peligros, 11, Madrid","coordinates":{"longitude":-3.699809128824583,"latitude":40.4190279982664}}
{"_id":{"$oid":"f83c1e5c6d8d4bf89cbcb788"},"name":"calle del Conde de Peñalver, 27, Madrid","coordinates":{"longitude":-3.6757435406705175,"latitude":40.42769371329183}}
{"_id":{"$oid":"fce9ba9559977d2125e0e400"},"name":"calle de Alcalá, 380, Madrid","coordinates":{"longitude":-3.641799996786083,"latitude":40.43602229206622}}
{"_id":{"$oid":"71fb3fcfb0be04ddf3cd62cb"},"name":"calle Limón Verde, 3, Algete","coordinates":{"longitude":-3.498994688463022,"latitude":40.596788761910915}}
{"_id":{"$oid":"b8c74f9b475301cce9b10623"},"name":"calle de Lope de Rueda, 38, Madrid","coordinates":{"longitude":-3.6777660607121794,"latitude":40.42013229885759}}
{"_id":{"$oid":"98a3e9b3994933236ec4f0e8"},"name":"paseo de Extremadura, 124, Madrid","coordinates":{"longitude":-3.735170199973185,"latitude":40.411358080146165}}
{"_id":{"$oid":"25181f6c8acb5bcc9d22fab2"},"name":"calle de Gaztambide, 23, Madrid","coordinates":{"longitude":-3.7157629472924456,"latitude":40.432894318267564}}
{"_id":{"$oid":"217c0424fcc966f8712b0be8"},"name":"calle de Sepúlveda, 212, Madrid","coordinates":{"longitude":-3.754595378392267,"latitude":40.400971632989645}}
{"_id":{"$oid":"6554a864efd0ab332aa654bd"},"name":"calle de Alcalá, 54, Madrid","coordinates":{"longitude":-3.6908202593046795,"latitude":40.41950548280027}}
{"_id":{"$oid":"f1571cde2ef531d524e77206"},"name":"calle de Juan de Urbieta, 34, Madrid","coordinates":{"longitude":-3.6763724078574684,"latitude":40.40573497870366}}
{"_id":{"$oid":"dbfa469adbd6841260af3227"},"name":"calle de los Madrazo, 1, Madrid","coordinates":{"longitude":-3.698355791559435,"latitude":40.41755029418184}}
{"_id":{"$oid":"c27b07c0dd1d998f7c1bd354"},"name":"calle de Martínez de la Riva, 41, Madrid","coordinates":{"longitude":-3.665790708455828,"latitude":40.392706200234386}}
{"_id":{"$oid":"06ef41130b3d97f2cc233a7b"},"name":"calle de Carretas, 12, Madrid","coordinates":{"longitude":-3.703375771446602,"latitude":40.415159493631634}}
{"_id":{"$oid":"17750b965f70045916626752"},"name":"paseo de Santa María de la Cabeza, 47, Madrid","coordinates":{"longitude":-3.697773755208203,"latitude":40.402283460375095}}
{"_id":{"$oid":"b20c5838b06c31cc97b9d875"},"name":"paseo del Marqués de Zafra, 19, Madrid","coordinates":{"longitude":-3.666253200849274,"latitude":40.42646951172945}}
{"_id":{"$oid":"5aeb35f43c27b85dba2e9bd3"},"name":"calle de Jaime el Conquistador, 38, Madrid","coordinates":{"longitude":-3.698483604201149,"latitude":40.39571156131529}}
{"_id":{"$oid":"51504b9f6e8a4132bc923432"},"name":"calle del Arco, 29, Colmenar de Oreja","coordinates":{"longitude":-3.3899728589920297,"latitude":40.11109802930748}}
{"_id":{"$oid":"717bea0c62e8baf7c17aef3b"},"name":"calle de Jerónima Llorente, 42, Madrid","coordinates":{"longitude":-3.707475091321754,"latitude":40.454296664585264}}
{"_id":{"$oid":"ec73a8db77064d59314f12f1"},"name":"calle de Fuencarral, 83, Madrid","coordinates":{"longitude":-3.7013685289050366,"latitude":40.42617172200016}}
{"_id":{"$oid":"fa4d8ff5b5b8c54fe2dbcd3f"},"name":"avda de la Reina Victoria, 52, Madrid","coordinates":{"longitude":-3.711982603534167,"latitude":40.44670143887582}}
{"_id":{"$oid":"6f1491f488e59fa92210953a"},"name":"calle Alcalá, 64, Valdilecha","coordinates":{"longitude":-3.300674646103035,"latitude":40.294283449124684}}
{"_id":{"$oid":"46a10f4ca20cc59e103d31f4"},"name":"calle de la Independencia, 21, Móstoles","coordinates":{"longitude":-3.86271543703713,"latitude":40.32340412236878}}
{"_id":{"$oid":"bad1346113ee6654c4bd2162"},"name":"calle de Ave María, 31, Madrid","coordinates":{"longitude":-3.7008366919515496,"latitude":40.410138853836145}}
{"_id":{"$oid":"4e33d9132a5dc5427d087b03"},"name":"calle de Suecia, 30, Madrid","coordinates":{"longitude":-3.606004996219322,"latitude":40.42294513959445}}
{"_id":{"$oid":"b31f6bb5c55435cb5495a62b"},"name":"plaza Mayor de Villaverde, 0, Madrid","coordinates":{"longitude":-3.7071544604141105,"latitude":40.347099748516385}}
{"_id":{"$oid":"a2a86721a78aeecaf5b5afa6"},"name":"avda de la Institución Libre de Enseñanza, 174, Madrid","coordinates":{"longitude":-3.626857727271402,"latitude":40.42163575213607}}
{"_id":{"$oid":"23616cae894380b47f46b9f1"},"name":"avda de España, 6, Villa del Prado","coordinates":{"longitude":-4.30353124477758,"latitude":40.2774387680871}}
{"_id":{"$oid":"48eb4bfbd10a45dcabb08d16"},"name":"calle de Augusto Figueroa, 39, Madrid","coordinates":{"longitude":-3.6970948333818474,"latitude":40.42214350513652}}
{"_id":{"$oid":"c994b04fa716560e05a399fa"},"name":"calle de Alonso Heredia, 5, Madrid","coordinates":{"longitude":-3.6735654272721288,"latitude":40.43506680073993}}
{"_id":{"$oid":"0550fd3ee7831440c5cf21c5"},"name":"calle de Fernando el Católico, 32, Madrid","coordinates":{"longitude":-3.711167018287128,"latitude":40.43421097121721}}
{"_id":{"$oid":"8aa1dbe4178259b89b6c1d1c"},"name":"plaza del Alcalde Moreno Torres, S/N, Madrid","coordinates":{"longitude":-3.655953948176788,"latitude":40.48751930106833}}
{"_id":{"$oid":"d50d47430710a4dcbd07d0bc"},"name":"calle de Manuel de Falla, 2, Madrid","coordinates":{"longitude":-3.6894533083047776,"latitude":40.455324477422685}}
{"_id":{"$oid":"60c2e6d72f84b669c7d8455b"},"name":"paseo de Extremadura, 92, Madrid","coordinates":{"longitude":-3.7324823309778985,"latitude":40.41238415241226}}
{"_id":{"$oid":"40937866790971d76a2e3f0d"},"name":"calle de Eros, 12, Madrid","coordinates":{"longitude":-3.6797652582544877,"latitude":40.392723992683635}}
{"_id":{"$oid":"5b356f529d4f8cf903747766"},"name":"calle de las Huertas, 17, Madrid","coordinates":{"longitude":-3.6997555555413766,"latitude":40.413857131147786}}
{"_id":{"$oid":"910cb5d1bf3c0e982e60367b"},"name":"calle de Alonso Cano, 50, Madrid","coordinates":{"longitude":-3.6973594979380877,"latitude":40.44206085411073}}
{"_id":{"$oid":"20bba69c3af372a63a47b9aa"},"name":"calle del Príncipe, 15, Madrid","coordinates":{"longitude":-3.700208716053269,"latitude":40.41550304316264}}
{"_id":{"$oid":"57782e2958e4591b39108b11"},"name":"calle del Pez, 9, Madrid","coordinates":{"longitude":-3.7049344804396207,"latitude":40.42333921628863}}
{"_id":{"$oid":"7d7e53ff1d1100688db14f6a"},"name":"calle de Hermosilla, 85, Madrid","coordinates":{"longitude":-3.6768829780682086,"latitude":40.426110466484936}}
{"_id":{"$oid":"b7999fd08c0947d237eb98d1"},"name":"calle de Ferraz, 3, Madrid","coordinates":{"longitude":-3.7170063888517566,"latitude":40.42564336159317}}
{"_id":{"$oid":"dadc205560f7df8bc6063e95"},"name":"calle de Bravo Murillo, 25, Madrid","coordinates":{"longitude":-3.704476046528958,"latitude":40.435891578934665}}
{"_id":{"$oid":"82438d0d0745730a3c19a5c9"},"name":"plaza de San Ildefonso, 4, Madrid","coordinates":{"longitude":-3.702278594274326,"latitude":40.424130156576155}}
{"_id":{"$oid":"303ef392dad871c5ba2b8585"},"name":"calle de Juan de Mena, 11, Madrid","coordinates":{"longitude":-3.6911642591595304,"latitude":40.41741332867144}}
{"_id":{"$oid":"40b51446fb246b140fbd415b"},"name":"calle de Lombía, 7, Madrid","coordinates":{"longitude":-3.6724629027976885,"latitude":40.42499211294086}}
{"_id":{"$oid":"1cffcda95a0bd6fd4af82200"},"name":"calle de Francisco Silvela, 75, Madrid","coordinates":{"longitude":-3.676548565084636,"latitude":40.4362655991304}}
{"_id":{"$oid":"a19a2d63ed683749065d7bfb"},"name":"calle de Delicias, 25, Madrid","coordinates":{"longitude":-3.6924309980954266,"latitude":40.404153428842655}}
{"_id":{"$oid":"f8e861a6a3edd4d88a1240df"},"name":"calle de Arriaga, 15, Madrid","coordinates":{"longitude":-3.645029235239539,"latitude":40.42724753527024}}
{"_id":{"$oid":"903355e60a909d8c063e550c"},"name":"calle de Goya, 12, Madrid","coordinates":{"longitude":-3.6851247238231095,"latitude":40.42509795187006}}
{"_id":{"$oid":"2fc6e049087d8f0618b74e21"},"name":"calle de Valdetorres de Jarama, 31, Madrid","coordinates":{"longitude":-3.64253820223917,"latitude":40.470207364021995}}
{"_id":{"$oid":"14c5943227b2d676ea4f0d0e"},"name":"calle del Marqués de Urquijo, 2, Madrid","coordinates":{"longitude":-3.7167180963897346,"latitude":40.43069020087638}}
{"_id":{"$oid":"c3481dc531d33b49ca46429e"},"name":"calle Pedro Álvarez, 4, Cadalso de los Vidrios","coordinates":{"longitude":-4.441016173960184,"latitude":40.302690475810365}}
{"_id":{"$oid":"fffa242c3e909d04d54d63c8"},"name":"calle de Almansa, 11, Madrid","coordinates":{"longitude":-3.704691769177531,"latitude":40.44864701228127}}
{"_id":{"$oid":"5828c12a9d7e08786a21ddd7"},"name":"calle de Calatrava, 34, Madrid","coordinates":{"longitude":-3.7132577440887338,"latitude":40.41002685992537}}
{"_id":{"$oid":"c387c5650336241033fd62aa"},"name":"calle Jesusa Lara, 15, Torrelodones","coordinates":{"longitude":-3.9523574645044293,"latitude":40.5779680035298}}
{"_id":{"$oid":"3161d455940217ba15d4d11c"},"name":"calle del Berrocal, 11, Madrid","coordinates":{"longitude":-3.675726348684129,"latitude":40.34344972787421}}
{"_id":{"$oid":"a01b126426d46d6701f9e84b"},"name":"calle de Mario Moreno \"Cantinflas\", 72, Madrid","coordinates":{"longitude":-3.5600337277935656,"latitude":40.40473536240046}}
{"_id":{"$oid":"58113942e0ce75dee6c774cb"},"name":"calle de Ponzano, 43, Madrid","coordinates":{"longitude":-3.6993108912185386,"latitude":40.44034636367397}}
{"_id":{"$oid":"a3c4c2fa6b1c85502ccce1c3"},"name":"calle de la Puebla, 9, Madrid","coordinates":{"longitude":-3.703165218719692,"latitude":40.4221067440437}}
{"_id":{"$oid":"ee2ba01391d0b1294cb9e899"},"name":"calle de Juan Pérez Zúñiga, 21, Madrid","coordinates":{"longitude":-3.6482566470390947,"latitude":40.44292321516925}}
{"_id":{"$oid":"c4456c57cc06b6a6ead91e8a"},"name":"calle de Serrano, 149, Madrid","coordinates":{"longitude":-3.6848591208665,"latitude":40.446559008612965}}
{"_id":{"$oid":"239a7c628aa63b1dd215138f"},"name":"calle de José Ortega y Gasset, 47, Madrid","coordinates":{"longitude":-3.6775837841856136,"latitude":40.43016042608685}}
{"_id":{"$oid":"ae3a395679aa6d23b96ff6af"},"name":"calle Rafael Alberti, 9, Collado Villalba","coordinates":{"longitude":-4.006317020254685,"latitude":40.62683285567312}}
{"_id":{"$oid":"01d62e4558563cea8c31d1a5"},"name":"calle de Jaén, 36, Madrid","coordinates":{"longitude":-3.7000383934854484,"latitude":40.45023384216477}}
{"_id":{"$oid":"d8d789815c63c5cfc7cf1310"},"name":"calle de Catamarán, 2, Madrid","coordinates":{"longitude":-3.5945866186073485,"latitude":40.45153606317111}}
{"_id":{"$oid":"a86fd36b7bd1eee7f9cdbd0e"},"name":"avda del Valle, 38, Rascafría","coordinates":{"longitude":-3.8784571166288977,"latitude":40.904985100919966}}
{"_id":{"$oid":"7595e39a844ae0297802dc49"},"name":"calle de San Bernardo, 60, Madrid","coordinates":{"longitude":-3.707115904643148,"latitude":40.42565022428984}}
{"_id":{"$oid":"b1e6928f0ede2cd90a5a1e0b"},"name":"calle Gran Vía, 51, Madrid","coordinates":{"longitude":-3.7078120732116084,"latitude":40.421213520949934}}
{"_id":{"$oid":"265a9178c2d6ca8c2341a605"},"name":"calle de los Huertos, 20, Villaconejos","coordinates":{"longitude":-3.485160812443823,"latitude":40.10461190216473}}
{"_id":{"$oid":"396991add316375b90573ab4"},"name":"calle de Luis Peidro, 11, Madrid","coordinates":{"longitude":-3.67311510291835,"latitude":40.396988156776096}}
{"_id":{"$oid":"49932d09da8eaa99618c9a84"},"name":"calle de Stuart, 78, Aranjuez","coordinates":{"longitude":-3.6037362119155687,"latitude":40.03312187308071}}
{"_id":{"$oid":"d0ef03df0211e02a24e8f393"},"name":"calle de José Ortega y Gasset, 69, Madrid","coordinates":{"longitude":-3.673479456571898,"latitude":40.42999521917719}}
{"_id":{"$oid":"fad76d24c0ff5b8a4876d7e2"},"name":"paseo de la Habana, 107, Madrid","coordinates":{"longitude":-3.6818364457183863,"latitude":40.45900928822489}}
{"_id":{"$oid":"d7f76ef8569f853a37ae347b"},"name":"calle del Conde de Aranda, 7, Madrid","coordinates":{"longitude":-3.6872845954619953,"latitude":40.42187791482298}}
{"_id":{"$oid":"ed42538aaf794c0d12c55a6e"},"name":"calle de Velázquez, 20, Madrid","coordinates":{"longitude":-3.684036345166343,"latitude":40.423554842247476}}
{"_id":{"$oid":"d9f18c446367a673ff2adb3b"},"name":"plaza de la Constitución, 10, Getafe","coordinates":{"longitude":-3.732139039039509,"latitude":40.30555615456857}}
{"_id":{"$oid":"daeea25b415143fe6ab6df24"},"name":"calle Gran Vía, 26, Madrid","coordinates":{"longitude":-3.7014005105362386,"latitude":40.420171511765226}}
{"_id":{"$oid":"258b37a01a4a772468ba1c59"},"name":"avda de Menéndez Pelayo, 13, Madrid","coordinates":{"longitude":-3.679288831082077,"latitude":40.42034858802624}}
{"_id":{"$oid":"a804a83e25bf996fb82e2b18"},"name":"calle de Ponzano, 46, Madrid","coordinates":{"longitude":-3.6990632940720336,"latitude":40.440347861205396}}
{"_id":{"$oid":"5643c6deb31cabcc68c6045f"},"name":"calle de la Salud, 10, Madrid","coordinates":{"longitude":-3.7029632801292722,"latitude":40.419693550326954}}
{"_id":{"$oid":"a9881819c6cd403014ae943b"},"name":"avda de Alberto Alcocer, 47, Madrid","coordinates":{"longitude":-3.6786276662041395,"latitude":40.45893808164037}}
{"_id":{"$oid":"26ca7415e26987f32eb524f5"},"name":"calle del Cine, 38, Madrid","coordinates":{"longitude":-3.7737049070432143,"latitude":40.39543991222728}}
{"_id":{"$oid":"8450b8e482c27e6b0b76b39c"},"name":"avda del Doctor Manuel Jarabo, 10, San Martín de la Vega","coordinates":{"longitude":-3.5734961879503637,"latitude":40.210429980074316}}
{"_id":{"$oid":"29951d2c6a876dcffbb9a36b"},"name":"calle de La Pícara Molinera, 75, Madrid","coordinates":{"longitude":-3.702677639072693,"latitude":40.353676681656474}}
{"_id":{"$oid":"f760c37b3b702c8a596d2512"},"name":"avda de Monasterio de Silos, s/n, Madrid","coordinates":{"longitude":-3.706140409025263,"latitude":40.50364682263927}}
{"_id":{"$oid":"eb9733bbb0a5598700385d77"},"name":"calle del Real, 17, Molinos, Los","coordinates":{"longitude":-4.072898089197063,"latitude":40.714057464111406}}
{"_id":{"$oid":"d3d7bdd5b51f831290d8b3fa"},"name":"paseo de las Delicias, 40, Madrid","coordinates":{"longitude":-3.6938729418434515,"latitude":40.40341505029645}}
{"_id":{"$oid":"9cb3109aef0f7b9b872c1c6b"},"name":"avda de Ramón y Cajal, 69, Madrid","coordinates":{"longitude":-3.6684574668914394,"latitude":40.452636994294345}}
{"_id":{"$oid":"9bbf8b8d895f5079cbad43f9"},"name":"calle de Villaamil, 51, Madrid","coordinates":{"longitude":-3.7079012719558153,"latitude":40.46006881090456}}
{"_id":{"$oid":"8b8bd08114c175e53498219e"},"name":"calle Mayor, 34, Alcalá de Henares","coordinates":{"longitude":-3.366298680027742,"latitude":40.48249399512689}}
{"_id":{"$oid":"41c47eecd22bb586e9b66ddb"},"name":"calle de Joaquín María López, 19, Madrid","coordinates":{"longitude":-3.7109772776667937,"latitude":40.43746439120649}}
{"_id":{"$oid":"0c01ab3c3b355459677dbf33"},"name":"avda Juan Pablo II, 10, Pozuelo de Alarcón","coordinates":{"longitude":-3.802318122348685,"latitude":40.447334965728096}}
{"_id":{"$oid":"411e46e98c044a75a95d702b"},"name":"calle de Alcalá, 148, Madrid","coordinates":{"longitude":-3.6696229636986106,"latitude":40.427477073243224}}
{"_id":{"$oid":"e879cd77add274ba69fa6377"},"name":"calle de las Carolinas, 3, Madrid","coordinates":{"longitude":-3.7038911581470666,"latitude":40.45103026391757}}
{"_id":{"$oid":"3e80bdea8f353b399ee15d63"},"name":"calle de Francos Rodríguez, 9, Madrid","coordinates":{"longitude":-3.704422896724496,"latitude":40.45564863456902}}
{"_id":{"$oid":"e4875379bd60816a39f3bc22"},"name":"calle de Tomás Borrás, 8, Madrid","coordinates":{"longitude":-3.696996958536668,"latitude":40.39552233241834}}
{"_id":{"$oid":"ff8fce5fe3ed339425c1ddac"},"name":"gta de Ruiz Jiménez, 8, Madrid","coordinates":{"longitude":-3.7056784959191673,"latitude":40.429109463837776}}
{"_id":{"$oid":"c96ba3cdb5cc88ce7cc4da23"},"name":"calle del General Álvarez de Castro, 24, Madrid","coordinates":{"longitude":-3.7022734622509823,"latitude":40.43610317849497}}
{"_id":{"$oid":"441ab3108c122afb88132b33"},"name":"calle Enmedio, 39, Torrejón de Ardoz","coordinates":{"longitude":-3.4789770482180367,"latitude":40.45625310193602}}
{"_id":{"$oid":"d0e942c844e2492c6214989f"},"name":"calle de Toledo, 105, Madrid","coordinates":{"longitude":-3.710100066092854,"latitude":40.408992237341785}}
{"_id":{"$oid":"8827ba1836e406cd3af7e94a"},"name":"calle de Fernández de los Ríos, 21, Madrid","coordinates":{"longitude":-3.70703635321661,"latitude":40.434939011090535}}
{"_id":{"$oid":"f14e697c736f5b274dc14188"},"name":"avda de la Ciudad de Barcelona, 27, Madrid","coordinates":{"longitude":-3.6803762664205477,"latitude":40.404261027818485}}
{"_id":{"$oid":"df232e36e360517baba41368"},"name":"calle de Francos Rodríguez, 80, Madrid","coordinates":{"longitude":-3.709866160923042,"latitude":40.45737208577296}}
{"_id":{"$oid":"ed96bef2dae0257b2036bf21"},"name":"calle del Alcalde López Casero, 2, Madrid","coordinates":{"longitude":-3.655276537068768,"latitude":40.43239713142469}}
{"_id":{"$oid":"bec9d7804e393e7e694400c0"},"name":"paseo de las Delicias, 124, Madrid","coordinates":{"longitude":-3.6949743856982056,"latitude":40.393633590687756}}
{"_id":{"$oid":"2bdb968f67d020062ea4ba9b"},"name":"avda del Monte Igueldo, 7, Madrid","coordinates":{"longitude":-3.6676244739591293,"latitude":40.39703800723383}}
{"_id":{"$oid":"3bfe60393be265989211ec93"},"name":"calle de la Victoria, 6, Madrid","coordinates":{"longitude":-3.7017690538872436,"latitude":40.41593502599932}}
{"_id":{"$oid":"1f4a92e8aff6d0de5b91649b"},"name":"calle del General Lacy, 11, Madrid","coordinates":{"longitude":-3.6907109857305933,"latitude":40.40305560132665}}
{"_id":{"$oid":"eb4a48c677b768aa18d535df"},"name":"calle de Ayala, 19, Madrid","coordinates":{"longitude":-3.685695684873725,"latitude":40.42792340325525}}
{"_id":{"$oid":"d148bf3d4a5dc23954937cdb"},"name":"calle de Gonzalo de Córdoba, 14, Madrid","coordinates":{"longitude":-3.702422628314413,"latitude":40.43230947649001}}
{"_id":{"$oid":"7cf64b3077aaeaf30d2d9a0a"},"name":"calle de Lope de Haro, 10, Madrid","coordinates":{"longitude":-3.7025535629790096,"latitude":40.45734469086514}}
{"_id":{"$oid":"d98b2c0f6676f527fef5724c"},"name":"calle de Antonia Rodríguez Sacristán, 31, Madrid","coordinates":{"longitude":-3.7458494900608774,"latitude":40.373019166498615}}
{"_id":{"$oid":"9608de0ee8792b5bed441e6b"},"name":"calle de Antonio López, 13, Madrid","coordinates":{"longitude":-3.713815823675161,"latitude":40.39703235173834}}
{"_id":{"$oid":"7f4e101574a7b17a594e311e"},"name":"calle de Zurita, 41, Madrid","coordinates":{"longitude":-3.6998688498914216,"latitude":40.40886543058877}}
{"_id":{"$oid":"524887efa7d25673dd5e62e5"},"name":"calle Malacuera, 39, Torrelaguna","coordinates":{"longitude":-3.5383087529597423,"latitude":40.82385499843841}}
{"_id":{"$oid":"737a2056f71e926c62fecd2a"},"name":"calle de Pinos Alta, 16, Madrid","coordinates":{"longitude":-3.696135434250452,"latitude":40.46627538046984}}
{"_id":{"$oid":"f7a5fba42962be79843b9afb"},"name":"plaza de España, 2, Mejorada del Campo","coordinates":{"longitude":-3.4879740584988643,"latitude":40.397287053510304}}
{"_id":{"$oid":"69f9ed9ec0cd44d654cca086"},"name":"calle de Santa Isabel, 7, Madrid","coordinates":{"longitude":-3.698502175053841,"latitude":40.41118902214075}}
{"_id":{"$oid":"fb000c0db19e6da7b11602f7"},"name":"calle de San Bernardo, 39, Madrid","coordinates":{"longitude":-3.707600970534225,"latitude":40.423566170689234}}
{"_id":{"$oid":"16a75a42e2bd9909347a95d2"},"name":"avda de Burgos, 26, Madrid","coordinates":{"longitude":-3.675150256043464,"latitude":40.47797638402715}}
{"_id":{"$oid":"fc9da0556e773404e324e019"},"name":"avda de la Albufera, 87, Madrid","coordinates":{"longitude":-3.661862222363504,"latitude":40.39462066209339}}
{"_id":{"$oid":"c23953f7f3e355cfc49f41c5"},"name":"plaza de la Constitución, 7, Ciempozuelos","coordinates":{"longitude":-3.6184114343479776,"latitude":40.15893509987446}}
{"_id":{"$oid":"676a8681c3023ac1015e0fc0"},"name":"calle de Marcelo Usera, 36, Madrid","coordinates":{"longitude":-3.7021582941308346,"latitude":40.386473013859934}}
{"_id":{"$oid":"fca45ee8d6102764a1324651"},"name":"calle de Juan de Olías, 3, Madrid","coordinates":{"longitude":-3.7026319872392066,"latitude":40.45355143222676}}
{"_id":{"$oid":"495519a658f877d805a40ebb"},"name":"calle de Alcalá, 363, Madrid","coordinates":{"longitude":-3.644853962851844,"latitude":40.43481610501051}}
{"_id":{"$oid":"8e3f79dec18e45727a304a15"},"name":"calle de los Embajadores, 152, Madrid","coordinates":{"longitude":-3.6967871134154926,"latitude":40.39688396765868}}
{"_id":{"$oid":"b00e7bc2d0cdc93ddf5dbb2b"},"name":"calle de la Senda del Infante, 28, Madrid","coordinates":{"longitude":-3.7221975075821088,"latitude":40.491016192126466}}
{"_id":{"$oid":"bef2df0471ee1c26b4ab6ba9"},"name":"calle de Fuencarral, 108, Madrid","coordinates":{"longitude":-3.7020295204216502,"latitude":40.42851906607712}}
{"_id":{"$oid":"2a8e1af500d6a4f76ba1b7b5"},"name":"calle de Joaquín María López, 46, Madrid","coordinates":{"longitude":-3.7144710638601364,"latitude":40.43782122935302}}
{"_id":{"$oid":"ffa5f7ccb8bc3bafabdb1135"},"name":"calle de Marcelo Usera, 114, Madrid","coordinates":{"longitude":-3.7090882817652937,"latitude":40.38557486284563}}
{"_id":{"$oid":"1fc942f4744ab3ea3b8d1009"},"name":"calle de Cáceres, 12, Madrid","coordinates":{"longitude":-3.6958632275016434,"latitude":40.398709364325924}}
{"_id":{"$oid":"c8886a1732a566a91a8b2492"},"name":"calle del Príncipe de Vergara, 27, Madrid","coordinates":{"longitude":-3.680336016798703,"latitude":40.426009116600696}}
{"_id":{"$oid":"e87ec3f8a3267943af4d9355"},"name":"calle de Eugenia de Montijo, 114, Madrid","coordinates":{"longitude":-3.751410856702325,"latitude":40.37421741024884}}
{"_id":{"$oid":"7568a1196a5e9c0b4b7ec4c2"},"name":"avda del Monte Igueldo, 81, Madrid","coordinates":{"longitude":-3.6698803477728252,"latitude":40.39280870773895}}
{"_id":{"$oid":"f30ed89a9e5a7f0bb89cc4cd"},"name":"calle de Atocha, 46, Madrid","coordinates":{"longitude":-3.699694509236381,"latitude":40.41251515226328}}
{"_id":{"$oid":"7ed8b609decb99a0d3b73981"},"name":"calle de Hermosilla, 130, Madrid","coordinates":{"longitude":-3.6673157586187983,"latitude":40.425436352941794}}
{"_id":{"$oid":"9875350fd8f580fe72df512d"},"name":"calle de Narváez, 7, Madrid","coordinates":{"longitude":-3.675619287325463,"latitude":40.42352325515279}}
{"_id":{"$oid":"88d3c97758c6228fdc909151"},"name":"calle de Lope de Rueda, 16, Madrid","coordinates":{"longitude":-3.6775645255118152,"latitude":40.422367722947506}}
{"_id":{"$oid":"9f9b475f146acc820f8a65b9"},"name":"calle de Stuart, 87, Aranjuez","coordinates":{"longitude":-3.6035438453420916,"latitude":40.03257328568453}}
{"_id":{"$oid":"bd96a4b39f1337f25dd7c5b8"},"name":"calle de Trafalgar, 14, Madrid","coordinates":{"longitude":-3.7004141168356735,"latitude":40.43189823878451}}
{"_id":{"$oid":"9abcdee955dcbbef8deb0fc0"},"name":"calle de Sandoval, 4, Madrid","coordinates":{"longitude":-3.7034142292451064,"latitude":40.43016830947633}}
{"_id":{"$oid":"1e1251e186dd507f63e4d1e6"},"name":"calle Mayor, 17, Bustarviejo","coordinates":{"longitude":-3.7097298656451003,"latitude":40.85745696111992}}
{"_id":{"$oid":"6da2aed11121b0f6961df7a2"},"name":"calle de Villacarlos, 15, Madrid","coordinates":{"longitude":-3.606634331635167,"latitude":40.406392170338506}}
{"_id":{"$oid":"86d3e2861480848bb065d897"},"name":"calle de las Once Vigas, 2, Madrid","coordinates":{"longitude":-3.7518846816095244,"latitude":40.361736724381366}}
{"_id":{"$oid":"a4664bb93c80d569ab55ae0d"},"name":"calle de Blasco de Garay, 5, Madrid","coordinates":{"longitude":-3.7119195589696394,"latitude":40.43066579616046}}
{"_id":{"$oid":"4cfce395892e0dd44d4005e9"},"name":"calle de Serrano, 86, Madrid","coordinates":{"longitude":-3.686537590022354,"latitude":40.43188237885525}}
{"_id":{"$oid":"3898defe82b2391521fd8ba4"},"name":"calle de Sogueros, 3, Colmenar Viejo","coordinates":{"longitude":-3.768338608409743,"latitude":40.66171422910251}}
{"_id":{"$oid":"8d9e960a364e135404c9b7fe"},"name":"avda de Carabanchel Alto, 23, Madrid","coordinates":{"longitude":-3.753423223529886,"latitude":40.36558260980166}}
{"_id":{"$oid":"33a5ba217d047e430ff12d2d"},"name":"calle de Vergara, 12, Madrid","coordinates":{"longitude":-3.7113670555561318,"latitude":40.417389888588566}}
{"_id":{"$oid":"1a662ea1a48b87165ae80923"},"name":"calle de Rodríguez San Pedro, 35, Madrid","coordinates":{"longitude":-3.712496156303393,"latitude":40.43168026297281}}
{"_id":{"$oid":"1f38eec86df28dfa69bde16c"},"name":"avda del Monte Igueldo, 14, Madrid","coordinates":{"longitude":-3.6682451356545327,"latitude":40.396647031364935}}
{"_id":{"$oid":"758513a8413f30665825e0ed"},"name":"calle de Fernández de los Ríos, 20, Madrid","coordinates":{"longitude":-3.706377562224257,"latitude":40.435078173571085}}
{"_id":{"$oid":"6512e0dab3b0e2b12c5324d1"},"name":"calle de Castelló, 34, Madrid","coordinates":{"longitude":-3.6813235626848186,"latitude":40.42574203893796}}
{"_id":{"$oid":"deae17cf95670177fdec8186"},"name":"calle Lacedón, 18, Villaviciosa de Odón","coordinates":{"longitude":-3.906769557898332,"latitude":40.35657196399741}}
{"_id":{"$oid":"6312e9e06ebcdc693e963375"},"name":"plaza de Puerta de Moros, 3, Madrid","coordinates":{"longitude":-3.71091467618539,"latitude":40.41136562075423}}
{"_id":{"$oid":"1dc4f91ead5dc8bbc8827a84"},"name":"calle de Santa Engracia, 81, Madrid","coordinates":{"longitude":-3.699226053595646,"latitude":40.43557210089291}}
{"_id":{"$oid":"f6dade1a4e59a8cd1d27d880"},"name":"calle de Goya, 89, Madrid","coordinates":{"longitude":-3.6761880924426595,"latitude":40.42499741220944}}
{"_id":{"$oid":"79079a21ce4dc8b138b45c61"},"name":"calle de la Princesa, 30, Madrid","coordinates":{"longitude":-3.714083274163875,"latitude":40.42791370950288}}
{"_id":{"$oid":"9844dd8d72527a402a0202ff"},"name":"avda de Castilla, 12, Escorial, El","coordinates":{"longitude":-4.130580008138099,"latitude":40.58244190778762}}
{"_id":{"$oid":"2a5c0aa14f6a2f58976a370a"},"name":"calle de Juan de Mariana, 20, Madrid","coordinates":{"longitude":-3.6853495044024935,"latitude":40.3984568414887}}
{"_id":{"$oid":"14afbb7c57f546c67a51d616"},"name":"calle de Padilla, 69, Madrid","coordinates":{"longitude":-3.6725240990514103,"latitude":40.431135918558695}}
{"_id":{"$oid":"1def1d07c74363b49ca6f6c6"},"name":"calle de Ayala, 53, Madrid","coordinates":{"longitude":-3.678229580604629,"latitude":40.42755302909779}}
{"_id":{"$oid":"9492562782bb6f6befb7dfc8"},"name":"calle de Martín de los Heros, 3, Madrid","coordinates":{"longitude":-3.713382971968185,"latitude":40.42411622430246}}
{"_id":{"$oid":"22d772e4c54751c5187babf8"},"name":"calle de la Maquinilla, 13, Madrid","coordinates":{"longitude":-3.635752787039578,"latitude":40.382298559128046}}
{"_id":{"$oid":"8144be8ae9523866985a1896"},"name":"calle de Relatores, 20, Madrid","coordinates":{"longitude":-3.7034336937819354,"latitude":40.41279877095832}}
{"_id":{"$oid":"e14956d3d66a69b10fde4f7e"},"name":"calle de las Tiendas, 4, Arganda del Rey","coordinates":{"longitude":-3.43837426070663,"latitude":40.30051954946307}}
{"_id":{"$oid":"fd7fbe96187c7fe0d71745c4"},"name":"calle de Valderrebollo, 1, Madrid","coordinates":{"longitude":-3.6271828582932453,"latitude":40.37412002584145}}
{"_id":{"$oid":"faeb6f41febc5a08748bb39a"},"name":"calle de Eloy Gonzalo, 31, Madrid","coordinates":{"longitude":-3.7000315879687316,"latitude":40.43480145956461}}
{"_id":{"$oid":"78c16ccbf9ba8a4931c2053c"},"name":"calle de Alonso Cano, 9, Madrid","coordinates":{"longitude":-3.6981102431343285,"latitude":40.43598425008885}}
{"_id":{"$oid":"fede4de08256b712637369c8"},"name":"calle Reina Victoria, 4, San Lorenzo de El Escorial","coordinates":{"longitude":-4.14812608468086,"latitude":40.59140355423292}}
{"_id":{"$oid":"dc88be1c3c37f79a780846ae"},"name":"calle de Ferraz, 33, Madrid","coordinates":{"longitude":-3.7195928393096924,"latitude":40.4283029711788}}
{"_id":{"$oid":"5023fd4e56794d17a5001010"},"name":"avda de la Paz, 39, Orusco de Tajuña","coordinates":{"longitude":-3.2080932993319706,"latitude":40.283928053759034}}
{"_id":{"$oid":"d1688ae1899ea9cc3db11b91"},"name":"calle de Federico Moreno Torroba, 9, Madrid","coordinates":{"longitude":-3.66718597828426,"latitude":40.40513969910392}}
{"_id":{"$oid":"95eb481fbfcd8b5086960edb"},"name":"calle del Diamante, 33, Madrid","coordinates":{"longitude":-3.686283918696919,"latitude":40.35119850435529}}
{"_id":{"$oid":"76f7753e1a83924c65b05547"},"name":"calle Grande, 18, Chinchón","coordinates":{"longitude":-3.421647975286753,"latitude":40.14035823005998}}
{"_id":{"$oid":"0eef0b14fb2fb85b490f9080"},"name":"calle Real, 44, Collado Villalba","coordinates":{"longitude":-4.005673702618798,"latitude":40.630450911286744}}
{"_id":{"$oid":"770c7db09ab588c3bd8b482e"},"name":"calle del Tesoro, 1, Madrid","coordinates":{"longitude":-3.704046014932824,"latitude":40.42518247250494}}
{"_id":{"$oid":"b74fcacb44dd71d84ab3af58"},"name":"calle de Andrés Mellado, 1, Madrid","coordinates":{"longitude":-3.7147498749764685,"latitude":40.43074743138435}}
{"_id":{"$oid":"8f224ce7ee3ec20a71b965c1"},"name":"calle de Ponzano, 9, Madrid","coordinates":{"longitude":-3.699520272993913,"latitude":40.43779554719219}}
{"_id":{"$oid":"90b1028aa5e15b655f0555cc"},"name":"calle de Ana Mariscal, 1, Madrid","coordinates":{"longitude":-3.622839854054001,"latitude":40.39498158325231}}
{"_id":{"$oid":"d766237cf8d9d35fde393b5e"},"name":"calle de Diego de León, 22, Madrid","coordinates":{"longitude":-3.682829486391811,"latitude":40.43476920956438}}
{"_id":{"$oid":"b14d1c45649a6483c1287c9e"},"name":"calle de Santa Engracia, 56, Madrid","coordinates":{"longitude":-3.698190489011394,"latitude":40.434623404108336}}
{"_id":{"$oid":"b6f29f8e42443afeca2fa36e"},"name":"calle de Méndez Álvaro, 32, Madrid","coordinates":{"longitude":-3.686600293722918,"latitude":40.40094493458891}}
{"_id":{"$oid":"afcd29dabca37530c0f82c95"},"name":"calle del Conde de Peñalver, 34, Madrid","coordinates":{"longitude":-3.6751734867524166,"latitude":40.42845380270917}}
{"_id":{"$oid":"55786acad4bbe78e2d6bd87b"},"name":"calle de Sagasta, 5, Madrid","coordinates":{"longitude":-3.7010083372402076,"latitude":40.42894868682478}}
{"_id":{"$oid":"9b837621aa2e6a245d989b0f"},"name":"calle del Marqués de Viana, 24, Madrid","coordinates":{"longitude":-3.701213749210989,"latitude":40.46233479065978}}
{"_id":{"$oid":"108d73f1b880fab03892ef2b"},"name":"calle del Cerro Minguete, 14, Madrid","coordinates":{"longitude":-3.718531162430867,"latitude":40.48691295673577}}
{"_id":{"$oid":"b101d66fd24b8b352c85e16e"},"name":"calle de Goya, 131, Madrid","coordinates":{"longitude":-3.6703145850305874,"latitude":40.42470729049361}}
{"_id":{"$oid":"d59bb50c75d25671cb27760e"},"name":"avda de la Albufera, 12, Madrid","coordinates":{"longitude":-3.6682901928530933,"latitude":40.39762876106667}}
{"_id":{"$oid":"eb53a7ff29ef5cf0bdd3bf88"},"name":"calle de Veneras, 4, Madrid","coordinates":{"longitude":-3.7074160168139993,"latitude":40.41941413784654}}
{"_id":{"$oid":"1f71e4bd8056d632f38805c9"},"name":"avda de Daroca, 51, Madrid","coordinates":{"longitude":-3.6517577504847796,"latitude":40.42938998662427}}
{"_id":{"$oid":"7d4414e6fa928abb5e03470d"},"name":"calle de Ramón y Cajal, 18, San Martín de Valdeiglesias","coordinates":{"longitude":-4.3980070612198645,"latitude":40.3619108910585}}
{"_id":{"$oid":"35c6bf15e4daff5f3ccc6271"},"name":"calle Mayor, 99, Alcalá de Henares","coordinates":{"longitude":-3.3683334913637584,"latitude":40.48133437373338}}
{"_id":{"$oid":"2df0a4ed726e11525f0e16a3"},"name":"calle de María de Molina, 58, Madrid","coordinates":{"longitude":-3.6794477371938257,"latitude":40.43731166027164}}
{"_id":{"$oid":"8d798245f3b48f2faacde85f"},"name":"calle de San Emilio, 8, Madrid","coordinates":{"longitude":-3.6592782164155726,"latitude":40.429284281380205}}
{"_id":{"$oid":"46aa6c3de982ce25890ba494"},"name":"avda de San Fermín, 14, Madrid","coordinates":{"longitude":-3.691515999502372,"latitude":40.371158604113965}}
{"_id":{"$oid":"a3e81def0b89bf27d58e09d7"},"name":"calle de Doña Berenguela, 11, Madrid","coordinates":{"longitude":-3.725813641954537,"latitude":40.4125973802289}}
{"_id":{"$oid":"0ba17a367ffdff67cf8ff59b"},"name":"avda de la Reina Victoria, 20, Madrid","coordinates":{"longitude":-3.7066108070771273,"latitude":40.447220885596224}}
{"_id":{"$oid":"624efb264ab8cae135600491"},"name":"calle de la Virgen del Sagrario, 3, Madrid","coordinates":{"longitude":-3.6478293574525336,"latitude":40.43403370212078}}
{"_id":{"$oid":"f1fee0b1515f6914bc3b4a72"},"name":"calle de Ulises, 7, Madrid","coordinates":{"longitude":-3.6551488573934243,"latitude":40.45689336439485}}
{"_id":{"$oid":"d97d652fdb46ab672ac80100"},"name":"calle de Canillas, 8, Madrid","coordinates":{"longitude":-3.677426501746445,"latitude":40.44033253371015}}
{"_id":{"$oid":"ee6a4d347e5e8652804f5e7c"},"name":"calle del Boleo, 2, Fuentidueña de Tajo","coordinates":{"longitude":-3.161654746267471,"latitude":40.11811063818099}}
{"_id":{"$oid":"f185e6bba6aead6704eb46a5"},"name":"calle Juan Carlos I Rey de España, 51, Belmonte de Tajo","coordinates":{"longitude":-3.3370213258402677,"latitude":40.1334187826731}}
{"_id":{"$oid":"8b6d430d2f492e49bca54324"},"name":"calle Fuente, 7, Valdemorillo","coordinates":{"longitude":-4.067857565304691,"latitude":40.501131624158155}}
{"_id":{"$oid":"f3f5bb0876ae01e2c0becb93"},"name":"calle de López de Hoyos, 374, Madrid","coordinates":{"longitude":-3.659342023081458,"latitude":40.459950597504}}
{"_id":{"$oid":"fff05cef104e52f22448f283"},"name":"calle de Antonio López, 44, Madrid","coordinates":{"longitude":-3.7112423780081336,"latitude":40.39547162231044}}
{"_id":{"$oid":"0ca9e979f8089463ef2d943f"},"name":"calle del General Ricardos, 75, Madrid","coordinates":{"longitude":-3.7224669560630868,"latitude":40.39391553811059}}
{"_id":{"$oid":"e0cdd255101cea12da849719"},"name":"paseo de las Delicias, 106, Madrid","coordinates":{"longitude":-3.694726541728902,"latitude":40.395887349821095}}
{"_id":{"$oid":"1e50287b5d25e84f667ca504"},"name":"calle de Juan Bautista de Toledo, 27, Madrid","coordinates":{"longitude":-3.6724493646027483,"latitude":40.44256880100651}}
{"_id":{"$oid":"5f7d96373d4a7b56267b4cf0"},"name":"calle del Príncipe de Vergara, 270, Madrid","coordinates":{"longitude":-3.6765669867895157,"latitude":40.4580943077911}}
{"_id":{"$oid":"3da8ec73d7f04f1a4eb85513"},"name":"calle de Ávila, 33, Madrid","coordinates":{"longitude":-3.699792593912167,"latitude":40.452685775809236}}
{"_id":{"$oid":"f0b74fec04495f7e2514d808"},"name":"calle de Rusia, 8, Madrid","coordinates":{"longitude":-3.6096801855675404,"latitude":40.423952849991124}}
{"_id":{"$oid":"505af79d39287b5287c80368"},"name":"calle de Púrchena, 23, Madrid","coordinates":{"longitude":-3.6647084717430167,"latitude":40.476694572945206}}
{"_id":{"$oid":"de31a2c3931d4d0e98926707"},"name":"calle de Ibiza, 44, Madrid","coordinates":{"longitude":-3.673335945602832,"latitude":40.417968985867475}}
{"_id":{"$oid":"8e938963d1c49ae4bf8a948d"},"name":"paseo de Yeserías, 33, Madrid","coordinates":{"longitude":-3.70831612794278,"latitude":40.39846257832862}}
{"_id":{"$oid":"a5a5c3947b83080a6ce25890"},"name":"calle de Alcalá, 448, Madrid","coordinates":{"longitude":-3.6348910209192,"latitude":40.43854693449756}}
{"_id":{"$oid":"c91821555e834f3d68705e28"},"name":"calle de Santa Úrsula, 17, Madrid","coordinates":{"longitude":-3.7302641501431446,"latitude":40.411073854899584}}
{"_id":{"$oid":"22c506dd008408f6df93cfa6"},"name":"calle de López de Hoyos, 200, Madrid","coordinates":{"longitude":-3.6670963444513687,"latitude":40.4485637797297}}
{"_id":{"$oid":"3b6fa683600efa0d52c5bf23"},"name":"calle del General Ricardos, 145, Madrid","coordinates":{"longitude":-3.729819958324528,"latitude":40.3895900527782}}
{"_id":{"$oid":"992c2c193c5ca663fa10f5ca"},"name":"calle de Alcalá, 321, Madrid","coordinates":{"longitude":-3.6506246312474366,"latitude":40.43291890230231}}
{"_id":{"$oid":"29d1e359e645b2ea1760884c"},"name":"calle de Antonio Machado, 17, Madrid","coordinates":{"longitude":-3.720562397944011,"latitude":40.465008571295655}}
{"_id":{"$oid":"d2ec9de1fa72560c84a26c4c"},"name":"calle de Ventura de Argumosa, 22, San Fernando de Henares","coordinates":{"longitude":-3.529055670746605,"latitude":40.426376947700106}}
{"_id":{"$oid":"b5d54228592bf159408a635e"},"name":"calle de la Vía, 48, Madrid","coordinates":{"longitude":-3.718973473484476,"latitude":40.38562193271944}}
{"_id":{"$oid":"14c0c37b971f76b71810e33b"},"name":"calle del Cañaveral, 72, Madrid","coordinates":{"longitude":-3.6929002837713694,"latitude":40.46941192219779}}
{"_id":{"$oid":"99bced42dfef042bbdc47226"},"name":"calle de Colón, 6, Madrid","coordinates":{"longitude":-3.7010970379959347,"latitude":40.42386705689163}}
{"_id":{"$oid":"f9b1c912df5d4d5449b5bc06"},"name":"calle de Ferraz, 73, Madrid","coordinates":{"longitude":-3.723073677257987,"latitude":40.43189386807121}}
{"_id":{"$oid":"69d27bf38e1eacf15fc2358f"},"name":"calle de Rascón, 19, Madrid","coordinates":{"longitude":-3.7273170851814106,"latitude":40.39459684899194}}
{"_id":{"$oid":"343f1f0ba1cfdc06a5952ee4"},"name":"calle de Gabriel Lobo, 23, Madrid","coordinates":{"longitude":-3.680064859205091,"latitude":40.443560286761524}}
{"_id":{"$oid":"f4134b5ca48afc0596e8ad12"},"name":"calle de San Juan de Ortega, 9, Madrid","coordinates":{"longitude":-3.6734857881318725,"latitude":40.508562416174044}}
{"_id":{"$oid":"c53e365018e46ded40316894"},"name":"calle de Cartagena, 99, Madrid","coordinates":{"longitude":-3.6737623946245392,"latitude":40.43944403669768}}
{"_id":{"$oid":"61e7b8104aac4a8e84c9038a"},"name":"calle del Doctor Balmis, 36, Madrid","coordinates":{"longitude":-3.795852515706589,"latitude":40.45903725017361}}
{"_id":{"$oid":"5a5e7196ee560035492931f5"},"name":"avda de Europa, 30, Madrid","coordinates":{"longitude":-3.7837817851248676,"latitude":40.44539908137844}}
{"_id":{"$oid":"c529324b91395971fb21755c"},"name":"calle del Barón del Castillo de Chirel, 2, Madrid","coordinates":{"longitude":-3.7046792467160605,"latitude":40.45873715219145}}
{"_id":{"$oid":"9714ac9bced43ed969d29f02"},"name":"calle del Doctor Lozano, 11, Madrid","coordinates":{"longitude":-3.6621024949946026,"latitude":40.40351125085789}}
{"_id":{"$oid":"fa84ca74bed76d73e6c0a3c0"},"name":"paseo de Extremadura, 139, Madrid","coordinates":{"longitude":-3.7378899962105336,"latitude":40.41002543423093}}
{"_id":{"$oid":"799ab04bb76a192914d7a7f2"},"name":"avda de la Osa Mayor, 73, Madrid","coordinates":{"longitude":-3.7827837851508694,"latitude":40.45898234969094}}
{"_id":{"$oid":"40258836c3c529caf8e96e00"},"name":"paseo de Ginebra, 35, Madrid","coordinates":{"longitude":-3.602052820756259,"latitude":40.423911739338635}}
{"_id":{"$oid":"42887654a22cc8f694c53e9b"},"name":"calle de Marcenado, 29, Madrid","coordinates":{"longitude":-3.6735596340942123,"latitude":40.44748125565966}}
{"_id":{"$oid":"c3dd88b09e12c6fa2bfb656c"},"name":"paseo del Quince de Mayo, 8, Madrid","coordinates":{"longitude":-3.7176053514014398,"latitude":40.39769358475636}}
{"_id":{"$oid":"aca1732a6855250132526709"},"name":"calle del Arcipreste de Hita, 14, Madrid","coordinates":{"longitude":-3.7180802961199086,"latitude":40.43461868667227}}
{"_id":{"$oid":"de99b1a965ded07f0b65d444"},"name":"plaza de Juan de Malasaña, 4, Madrid","coordinates":{"longitude":-3.6209692102555473,"latitude":40.37990138147222}}
{"_id":{"$oid":"3dcd09755cef74c673031ada"},"name":"calle de Isaac Peral, 38, Madrid","coordinates":{"longitude":-3.7176232653260324,"latitude":40.43820710975572}}
{"_id":{"$oid":"d02263646519380fce6b44b6"},"name":"calle del Doce de Octubre, 21, Madrid","coordinates":{"longitude":-3.674554903386806,"latitude":40.41609700680202}}
{"_id":{"$oid":"59ed7060cef86472daafec5e"},"name":"calle del Párroco Don Emilio Franco, 66, Madrid","coordinates":{"longitude":-3.667563569482675,"latitude":40.38967793269262}}
{"_id":{"$oid":"188ecfb112a58e7a63bc7455"},"name":"plaza de Sisenando, 1, Madrid","coordinates":{"longitude":-3.7355614122424057,"latitude":40.408319544457626}}
{"_id":{"$oid":"958958a4230a400d57920b3d"},"name":"paseo de Marcelino Camacho, 49, Madrid","coordinates":{"longitude":-3.7443356656021463,"latitude":40.387452466093606}}
{"_id":{"$oid":"59aab90cf75537735033e66f"},"name":"calle del Doctor Esquerdo, 75, Madrid","coordinates":{"longitude":-3.6689139451345225,"latitude":40.418976641067026}}
{"_id":{"$oid":"e76ff7724ab2315a53bb6bce"},"name":"calle de Alcalá, 326, Madrid","coordinates":{"longitude":-3.6472802224135528,"latitude":40.433325064407434}}
{"_id":{"$oid":"10bd8ad728f0bcd27c52cb26"},"name":"calle del Capitán Blanco Argibay, 128, Madrid","coordinates":{"longitude":-3.703904826930722,"latitude":40.467030124459555}}
{"_id":{"$oid":"1f877aaac543b24326bbb348"},"name":"calle de Alejandro Sánchez, 51, Madrid","coordinates":{"longitude":-3.721648556426897,"latitude":40.39010080086313}}
{"_id":{"$oid":"a0607f510877c3fb5f93737f"},"name":"paseo del Comandante Fortea, 30, Madrid","coordinates":{"longitude":-3.7307824194291195,"latitude":40.42629584258121}}
{"_id":{"$oid":"3aad6850aceb363909d6ec3d"},"name":"plaza de los Sagrados Corazones, 4, Madrid","coordinates":{"longitude":-3.685351409638816,"latitude":40.45206959776596}}
{"_id":{"$oid":"5a06b2fecd972b07b699c60a"},"name":"calle de Enrique Urquijo, 110, Madrid","coordinates":{"longitude":-3.5570940291906146,"latitude":40.40266846047061}}
{"_id":{"$oid":"2bfc73bff9549229203cb2aa"},"name":"calle de la Infanta Mercedes, 59, Madrid","coordinates":{"longitude":-3.6969507742235206,"latitude":40.45956779075241}}
{"_id":{"$oid":"c4d64d4e18c2af9acb98555e"},"name":"calle de Nicolás Usera, 103, Madrid","coordinates":{"longitude":-3.704864040068216,"latitude":40.38156461523213}}
{"_id":{"$oid":"39853665a420e53b6d632e1d"},"name":"avda de Asturias, 23, Madrid","coordinates":{"longitude":-3.693615010681161,"latitude":40.46779503045559}}
{"_id":{"$oid":"411b62b7158e38d7b029806b"},"name":"calle de Cea Bermúdez, 60, Madrid","coordinates":{"longitude":-3.7145108566492437,"latitude":40.43935251434828}}
{"_id":{"$oid":"aa66211c5e9cbf75369efcf5"},"name":"calle de Nuestra Señora de Valverde, 14, Madrid","coordinates":{"longitude":-3.6870120051334574,"latitude":40.493518980189734}}
{"_id":{"$oid":"16f378e4e300d6e4a7ec5f9b"},"name":"calle Alcalde Luis Torrejón, 1, Torrejón de Velasco","coordinates":{"longitude":-3.777663532139662,"latitude":40.18703932045735}}
{"_id":{"$oid":"5d4b68bdbdd9c80d52bbc0da"},"name":"calle de López de Hoyos, 337, Madrid","coordinates":{"longitude":-3.653871753300474,"latitude":40.46749516485545}}
{"_id":{"$oid":"b83cb4f5d6e5b048dfaa18fa"},"name":"calle del Rutilo, 25, Madrid","coordinates":{"longitude":-3.686437398449593,"latitude":40.366332943986286}}
{"_id":{"$oid":"dc6cb03f2e97db0c49cecb4a"},"name":"calle de Álvarez Abellán, 12, Madrid","coordinates":{"longitude":-3.732350807363121,"latitude":40.38502446687861}}
{"_id":{"$oid":"325de9deb8c70fcaae8429ae"},"name":"avda de San Diego, 73, Madrid","coordinates":{"longitude":-3.6671740299800577,"latitude":40.38602248701326}}
{"_id":{"$oid":"98183bd6248dd8092a21f684"},"name":"avda del Talgo, 206, Madrid","coordinates":{"longitude":-3.7845418417825587,"latitude":40.44788941014909}}
{"_id":{"$oid":"e9deb4c109d596ac947162b4"},"name":"calle de la Huerta de Castañeda, 12, Madrid","coordinates":{"longitude":-3.7419133480527584,"latitude":40.407206883823925}}
{"_id":{"$oid":"973e78cbd2c818709edc4597"},"name":"calle de Marcelina, 38, Madrid","coordinates":{"longitude":-3.6971866468753753,"latitude":40.46869245650054}}
{"_id":{"$oid":"29ffd1946d03564ab5227d47"},"name":"calle de Serrano, 207, Madrid","coordinates":{"longitude":-3.6800468266584545,"latitude":40.45347029373651}}
{"_id":{"$oid":"e6adf38112933e43c7a24a2b"},